,Store_Name,Categories,Location,Zip_Code,Price,Rating,Review_Count,geometry,State,County,City,Name,RegionID,price_int,chain,strictly_coffee,coffee_is_cat,breakfast_and_brunch,bakeries,diner,deli,ice_cream_and_froyo,juice_and_smoothie,primary_category,Latitude,Longitude
0,Ébrìk Coffee Room,"['Coffee & Tea', 'Bakeries']","(33.755247750486298, -84.388165147831302)",30303.0,$,4.5,260,POINT (-84.3881651478313 33.7552477504863),GA,Fulton,Atlanta,Downtown,269306,1,0,0,1,0,1,0,0,0,0,bakeries,33.7552477504863,-84.3881651478313
1,Cafe Lucia,"['Coffee & Tea', 'Bagels', 'Juice Bars & Smoothies']","(33.755814000000001, -84.389904000000001)",30303.0,$,4.5,65,POINT (-84.389904 33.755814),GA,Fulton,Atlanta,Downtown,269306,1,0,0,1,0,0,0,0,0,1,juice_and_smoothie,33.755814,-84.389904
2,Condesa Coffee,"['Coffee & Tea', 'Breakfast & Brunch']","(33.7553100585938, -84.382820129394503)",30303.0,$,4.0,39,POINT (-84.3828201293945 33.7553100585938),GA,Fulton,Atlanta,Downtown,269306,1,0,0,1,1,0,0,0,0,0,breakfast_and_brunch,33.7553100585938,-84.3828201293945
3,Panbury's Pie Café,"['British', 'Coffee & Tea', 'Bakeries']","(33.760224600000001, -84.387175900000003)",30303.0,$,4.5,69,POINT (-84.3871759 33.7602246),GA,Fulton,Atlanta,Downtown,269306,1,0,0,1,0,1,0,0,0,0,bakeries,33.7602246,-84.3871759
4,THRIVE Farmers Coffee,['Coffee & Tea'],"(33.770229999999998, -84.388149999999996)",30308.0,$,4.0,2,POINT (-84.38815 33.77023),GA,Fulton,Atlanta,Downtown,269306,1,0,1,1,0,0,0,0,0,0,strictly_coffee,33.77023,-84.38815
5,Caribou Coffee,"['Coffee & Tea', 'Juice Bars & Smoothies', 'Sandwiches']","(33.760227200000003, -84.386841000000004)",30303.0,$,4.0,17,POINT (-84.386841 33.7602272),GA,Fulton,Atlanta,Downtown,269306,1,1,0,1,0,0,0,0,0,1,chain,33.7602272,-84.386841
6,Atlanta Breakfast Club,"['Breakfast & Brunch', 'American (Traditional)', 'Coffee & Tea']","(33.764665100000002, -84.395450299999993)",30313.0,$$,4.5,1229,POINT (-84.39545029999999 33.7646651),GA,Fulton,Atlanta,Downtown,269306,2,0,0,1,1,0,0,0,0,0,breakfast_and_brunch,33.7646651,-84.3954503
7,Just Add Honey Tea Company,"['Coffee & Tea', 'Tea Rooms']","(33.75403, -84.3798599)",30303.0,$$,4.5,44,POINT (-84.3798599 33.75403),GA,Fulton,Atlanta,Downtown,269306,2,0,0,1,0,0,0,0,0,0,other,33.75403,-84.3798599
8,Buenos Dias Cafe,"['Coffee & Tea', 'Juice Bars & Smoothies', 'Cafes']","(33.753830824723799, -84.388628465733802)",30303.0,$,4.5,112,POINT (-84.3886284657338 33.7538308247238),GA,Fulton,Atlanta,Downtown,269306,1,0,0,1,0,0,0,0,0,1,juice_and_smoothie,33.7538308247238,-84.3886284657338
9,Jittery Joe's,['Coffee & Tea'],"(33.75864, -84.387159999999994)",30303.0,$$,3.5,6,POINT (-84.38715999999999 33.75864),GA,Fulton,Atlanta,Downtown,269306,2,0,1,1,0,0,0,0,0,0,strictly_coffee,33.75864,-84.38716
10,Morsels,['Coffee & Tea'],"(33.758768036968497, -84.395073652267499)",30303.0,$,3.5,4,POINT (-84.3950736522675 33.7587680369685),GA,Fulton,Atlanta,Downtown,269306,1,0,1,1,0,0,0,0,0,0,strictly_coffee,33.7587680369685,-84.3950736522675
11,Starbucks,['Coffee & Tea'],"(33.758129119872997, -84.394340515136705)",30303.0,$,3.0,22,POINT (-84.3943405151367 33.758129119873),GA,Fulton,Atlanta,Downtown,269306,1,1,1,1,0,0,0,0,0,0,chain,33.758129119873,-84.3943405151367
12,Caribou Coffee,"['Coffee & Tea', 'Breakfast & Brunch']","(33.762859300000002, -84.386520399999995)",30308.0,$,3.0,15,POINT (-84.38652039999999 33.7628593),GA,Fulton,Atlanta,Downtown,269306,1,1,0,1,1,0,0,0,0,0,chain,33.7628593,-84.3865204
13,Erica's Sidewalk Cafe,"['Cafes', 'Southern', 'Food Stands']","(33.762410000000003, -84.383080000000007)",30308.0,$$,4.5,64,POINT (-84.38308000000001 33.76241),GA,Fulton,Atlanta,Downtown,269306,2,0,0,1,0,0,0,0,0,0,other,33.76241,-84.38308
14,Aviva by Kameel,"['Mediterranean', 'Juice Bars & Smoothies', 'Middle Eastern']","(33.760538145529203, -84.386555464804104)",30303.0,$$,5.0,1013,POINT (-84.3865554648041 33.7605381455292),GA,Fulton,Atlanta,Downtown,269306,2,0,0,0,0,0,0,0,0,1,juice_and_smoothie,33.7605381455292,-84.3865554648041
15,Dunkin' Donuts,"['Coffee & Tea', 'Donuts']","(33.757423400878899, -84.388900756835895)",30303.0,$,4.0,28,POINT (-84.38890075683589 33.7574234008789),GA,Fulton,Atlanta,Downtown,269306,1,1,0,1,0,0,0,0,0,0,chain,33.7574234008789,-84.3889007568359
16,The Food Shoppe,"['Cajun/Creole', 'Breakfast & Brunch', 'Seafood']","(33.758311999999997, -84.390376000000003)",30303.0,$,4.5,448,POINT (-84.390376 33.758312),GA,Fulton,Atlanta,Downtown,269306,1,0,0,0,1,0,0,0,0,0,breakfast_and_brunch,33.758312,-84.390376
17,Ellis St Cafe & Market,"['Delis', 'Breakfast & Brunch', 'Sandwiches']","(33.758246077489801, -84.382868372756704)",30303.0,$,5.0,14,POINT (-84.3828683727567 33.7582460774898),GA,Fulton,Atlanta,Downtown,269306,1,0,0,0,1,0,0,1,0,0,deli,33.7582460774898,-84.3828683727567
18,Sweet Auburn Bakery,"['Bakeries', 'Coffee & Tea']","(33.75403, -84.379859999999994)",30303.0,$,4.0,63,POINT (-84.37985999999999 33.75403),GA,Fulton,Atlanta,Downtown,269306,1,0,0,1,0,1,0,0,0,0,bakeries,33.75403,-84.37986
19,Dunkin' Donuts,"['Donuts', 'Coffee & Tea']","(33.760810999999997, -84.395356000000007)",30303.0,$,3.0,11,POINT (-84.39535600000001 33.760811),GA,Fulton,Atlanta,Downtown,269306,1,1,0,1,0,0,0,0,0,0,chain,33.760811,-84.395356
20,Dunkin' Donuts,"['Donuts', 'Coffee & Tea']","(33.762639932497102, -84.385578920077094)",30308.0,$,3.5,13,POINT (-84.38557892007709 33.7626399324971),GA,Fulton,Atlanta,Downtown,269306,1,1,0,1,0,0,0,0,0,0,chain,33.7626399324971,-84.3855789200771
21,Saxbys Coffee,"['Coffee & Tea', 'Sandwiches', 'Breakfast & Brunch']","(33.752868360338702, -84.386364236533893)",30303.0,$,2.5,36,POINT (-84.38636423653389 33.7528683603387),GA,Fulton,Atlanta,Downtown,269306,1,0,0,1,1,0,0,0,0,0,breakfast_and_brunch,33.7528683603387,-84.3863642365339
22,Cafe Apple,['Cafes'],"(33.764478400000002, -84.388479000000004)",30308.0,$,3.0,8,POINT (-84.388479 33.7644784),GA,Fulton,Atlanta,Downtown,269306,1,0,1,1,0,0,0,0,0,0,strictly_coffee,33.7644784,-84.388479
23,Starbucks,['Coffee & Tea'],"(33.760778545724698, -84.387378557289793)",30303.0,$,2.5,34,POINT (-84.38737855728979 33.7607785457247),GA,Fulton,Atlanta,Downtown,269306,1,1,1,1,0,0,0,0,0,0,chain,33.7607785457247,-84.3873785572898
24,Corner Bakery Cafe,"['Bakeries', 'Sandwiches']","(33.761733, -84.387832000000003)",30303.0,$,3.5,135,POINT (-84.387832 33.761733),GA,Fulton,Atlanta,Downtown,269306,1,0,0,0,0,1,0,0,0,0,bakeries,33.761733,-84.387832
25,Flats Handcrafted Flatbreads,"['Juice Bars & Smoothies', 'Pizza', 'American (New)']","(33.758180000000003, -84.392910000000001)",30303.0,$,4.0,108,POINT (-84.39291 33.75818),GA,Fulton,Atlanta,Downtown,269306,1,0,0,0,0,0,0,0,0,1,juice_and_smoothie,33.75818,-84.39291
26,Starbucks,['Coffee & Tea'],"(33.7577476096384, -84.394721722872902)",30313.0,$$,2.0,12,POINT (-84.3947217228729 33.7577476096384),GA,Fulton,Atlanta,Downtown,269306,2,1,1,1,0,0,0,0,0,0,chain,33.7577476096384,-84.3947217228729
27,Starbucks Coffee,['Coffee & Tea'],"(33.7543546879904, -84.386728398623305)",30303.0,$$,3.0,4,POINT (-84.3867283986233 33.7543546879904),GA,Fulton,Atlanta,Downtown,269306,2,0,1,1,0,0,0,0,0,0,strictly_coffee,33.7543546879904,-84.3867283986233
28,Park View Cafe,"['American (Traditional)', 'Buffets', 'Cafes']","(33.761363815234901, -84.391718958006294)",30303.0,$,3.5,9,POINT (-84.39171895800629 33.7613638152349),GA,Fulton,Atlanta,Downtown,269306,1,0,0,1,0,0,0,0,0,0,other,33.7613638152349,-84.3917189580063
29,Starbucks,['Coffee & Tea'],"(33.759419999999999, -84.388369999999995)",30303.0,$,3.5,20,POINT (-84.38836999999999 33.75942),GA,Fulton,Atlanta,Downtown,269306,1,1,1,1,0,0,0,0,0,0,chain,33.75942,-84.38837
30,Southern Roots Cafe,['Coffee & Tea'],"(33.758063490233901, -84.398118903766004)",30313.0,$$,3.0,5,POINT (-84.398118903766 33.7580634902339),GA,Fulton,Atlanta,Downtown,269306,2,0,1,1,0,0,0,0,0,0,strictly_coffee,33.7580634902339,-84.398118903766
31,Buena Gente Cuban Bakery,"['Food Trucks', 'Cuban', 'Bakeries']","(33.74832, -84.391109999999998)",,$,4.5,15,POINT (-84.39111 33.74832),GA,Fulton,Atlanta,Downtown,269306,1,0,0,0,0,1,0,0,0,0,bakeries,33.74832,-84.39111
32,Starbucks,['Coffee & Tea'],"(33.756810000000002, -84.388540000000006)",30303.0,$$,2.5,47,POINT (-84.38854000000001 33.75681),GA,Fulton,Atlanta,Downtown,269306,2,1,1,1,0,0,0,0,0,0,chain,33.75681,-84.38854
33,Dunkin' Donuts,"['Donuts', 'Coffee & Tea']","(33.770658963126301, -84.389324337244005)",30308.0,$,3.0,11,POINT (-84.38932433724401 33.7706589631263),GA,Fulton,Atlanta,Downtown,269306,1,1,0,1,0,0,0,0,0,0,chain,33.7706589631263,-84.389324337244
34,Arden's Garden,['Juice Bars & Smoothies'],"(33.7553100585938, -84.382820129394503)",30303.0,$,4.5,12,POINT (-84.3828201293945 33.7553100585938),GA,Fulton,Atlanta,Downtown,269306,1,1,0,0,0,0,0,0,0,1,chain,33.7553100585938,-84.3828201293945
35,The Coffee Bean & Tea Leaf,['Coffee & Tea'],"(33.7483100891113, -84.39111328125)",30320.0,$,3.0,2,POINT (-84.39111328125 33.7483100891113),GA,Fulton,Atlanta,Downtown,269306,1,0,1,1,0,0,0,0,0,0,strictly_coffee,33.7483100891113,-84.39111328125
36,Highland Bakery,"['Cafes', 'Breakfast & Brunch', 'Bakeries']","(33.7626762390137, -84.397506713867202)",30313.0,$,3.0,14,POINT (-84.3975067138672 33.7626762390137),GA,Fulton,Atlanta,Downtown,269306,1,1,0,1,1,1,0,0,0,0,chain,33.7626762390137,-84.3975067138672
37,Café du Jour,"['Fast Food', 'Cafes']","(33.760750000000002, -84.387060000000005)",30303.0,$,3.5,3,POINT (-84.38706000000001 33.76075),GA,Fulton,Atlanta,Downtown,269306,1,0,0,1,0,0,0,0,0,0,other,33.76075,-84.38706
38,Starbucks,"['Coffee & Tea', 'Sandwiches']","(33.761580000000002, -84.385099999999994)",30303.0,$,2.5,32,POINT (-84.38509999999999 33.76158),GA,Fulton,Atlanta,Downtown,269306,1,1,0,1,0,0,0,0,0,0,chain,33.76158,-84.3851
39,BP,"['Gas Stations', 'Donuts', 'Convenience Stores']","(33.770955999999998, -84.389232000000007)",30308.0,$$,4.0,8,POINT (-84.38923200000001 33.770956),GA,Fulton,Atlanta,Downtown,269306,2,0,0,0,0,0,0,0,0,0,other,33.770956,-84.389232
40,Reuben's Deli,"['Sandwiches', 'Delis', 'Burgers']","(33.755639475381997, -84.389237274819294)",30303.0,$,4.0,208,POINT (-84.38923727481929 33.755639475382),GA,Fulton,Atlanta,Downtown,269306,1,0,0,0,0,0,0,1,0,0,deli,33.755639475382,-84.3892372748193
41,Municipal Market,"['Fruits & Veggies', 'Farmers Market', 'Grocery']","(33.75403, -84.3798599)",30303.0,$$,4.0,165,POINT (-84.3798599 33.75403),GA,Fulton,Atlanta,Downtown,269306,2,0,0,0,0,0,0,0,0,0,other,33.75403,-84.3798599
42,Panbury's Double Crust Pies,"['British', 'Bakeries', 'South African']","(33.75403, -84.379859999999994)",30303.0,$,4.5,92,POINT (-84.37985999999999 33.75403),GA,Fulton,Atlanta,Downtown,269306,1,0,0,0,0,1,0,0,0,0,bakeries,33.75403,-84.37986
43,Pemberton Cafe,"['Cafes', 'Fast Food']","(33.7624049, -84.392047099999999)",30313.0,$$$,1.0,25,POINT (-84.3920471 33.7624049),GA,Fulton,Atlanta,Downtown,269306,3,0,0,1,0,0,0,0,0,0,other,33.7624049,-84.3920471
44,Highland Bakery,"['Breakfast & Brunch', 'Coffee & Tea', 'Sandwiches']","(33.755253000000003, -84.387818999999993)",30303.0,$$,2.5,19,POINT (-84.38781899999999 33.755253),GA,Fulton,Atlanta,Downtown,269306,2,1,0,1,1,0,0,0,0,0,chain,33.755253,-84.387819
45,Baker Dude Cupcakes,['Cupcakes'],"(33.762718999999997, -84.385835999999998)",30303.0,$,4.5,18,POINT (-84.385836 33.762719),GA,Fulton,Atlanta,Downtown,269306,1,0,0,0,0,0,0,0,0,0,other,33.762719,-84.385836
46,Market Place,['Cafes'],"(33.761569999999999, -84.383359999999996)",30303.0,$,3.0,1,POINT (-84.38336 33.76157),GA,Fulton,Atlanta,Downtown,269306,1,0,1,1,0,0,0,0,0,0,strictly_coffee,33.76157,-84.38336
47,Metro Café Diner,"['Diners', 'Breakfast & Brunch', 'Sandwiches']","(33.760412000000002, -84.387101999999999)",30303.0,$$,3.0,362,POINT (-84.387102 33.760412),GA,Fulton,Atlanta,Downtown,269306,2,0,0,0,1,0,1,0,0,0,diner,33.760412,-84.387102
48,Starbucks,['Coffee & Tea'],"(33.769481800000001, -84.385311200000004)",30308.0,$,1.0,1,POINT (-84.3853112 33.7694818),GA,Fulton,Atlanta,Downtown,269306,1,1,1,1,0,0,0,0,0,0,chain,33.7694818,-84.3853112
49,Au Bon Pain,['Cafes'],"(33.760334861589001, -84.387139635010996)",30303.0,$,2.5,23,POINT (-84.387139635011 33.760334861589),GA,Fulton,Atlanta,Downtown,269306,1,0,1,1,0,0,0,0,0,0,strictly_coffee,33.760334861589,-84.387139635011
50,Kwan's Deli and Korean Kitchen,"['Delis', 'Korean', 'American (Traditional)']","(33.761050437867198, -84.394075976196305)",30313.0,$,4.0,238,POINT (-84.39407597619631 33.7610504378672),GA,Fulton,Atlanta,Downtown,269306,1,0,0,0,0,0,0,1,0,0,deli,33.7610504378672,-84.3940759761963
51,Bank of America Plaza,['Cafes'],"(33.771166000000001, -84.386160000000004)",30303.0,$$,4.5,3,POINT (-84.38616 33.771166),GA,Fulton,Atlanta,Downtown,269306,2,0,1,1,0,0,0,0,0,0,strictly_coffee,33.771166,-84.38616
52,Rawesome Juicery,['Juice Bars & Smoothies'],"(33.75403, -84.379859999999994)",30303.0,$,4.0,95,POINT (-84.37985999999999 33.75403),GA,Fulton,Atlanta,Downtown,269306,1,0,0,0,0,0,0,0,0,1,juice_and_smoothie,33.75403,-84.37986
53,Boba Mocha,['Bubble Tea'],"(33.755304939259702, -84.389096649420097)",30303.0,$$,3.5,7,POINT (-84.3890966494201 33.7553049392597),GA,Fulton,Atlanta,Downtown,269306,2,0,0,0,0,0,0,0,0,0,other,33.7553049392597,-84.3890966494201
54,Charlot's Creole Cafe,['Cafes'],"(33.752341399999999, -84.395390599999999)",30303.0,$$,3.5,13,POINT (-84.3953906 33.7523414),GA,Fulton,Atlanta,Downtown,269306,2,0,1,1,0,0,0,0,0,0,strictly_coffee,33.7523414,-84.3953906
55,PushStart Kitchen,['Specialty Food'],"(33.74832, -84.391109999999998)",,$$$,5.0,12,POINT (-84.39111 33.74832),GA,Fulton,Atlanta,Downtown,269306,3,0,0,0,0,0,0,0,0,0,other,33.74832,-84.39111
56,Nana G's Chik-n-Waffles,"['Caterers', 'Food Trucks']","(33.755299999999998, -84.389219999999995)",30303.0,$,4.5,36,POINT (-84.38921999999999 33.7553),GA,Fulton,Atlanta,Downtown,269306,1,0,0,0,0,0,0,0,0,0,other,33.7553,-84.38922
57,Meehan's Public House,"['Bars', 'Breakfast & Brunch', 'Burgers']","(33.758906000000003, -84.387739999999994)",30303.0,$$,3.5,354,POINT (-84.38773999999999 33.758906),GA,Fulton,Atlanta,Downtown,269306,2,0,0,0,1,0,0,0,0,0,breakfast_and_brunch,33.758906,-84.38774
58,Smoothie King,"['Juice Bars & Smoothies', 'Health Markets']","(33.756065540591401, -84.389213144303795)",30303.0,$,2.5,16,POINT (-84.3892131443038 33.7560655405914),GA,Fulton,Atlanta,Downtown,269306,1,1,0,0,0,0,0,0,0,1,chain,33.7560655405914,-84.3892131443038
59,Waffle House,"['Breakfast & Brunch', 'Diners', 'American (Traditional)']","(33.759887843495299, -84.391792013518597)",30303.0,$,3.5,126,POINT (-84.3917920135186 33.7598878434953),GA,Fulton,Atlanta,Downtown,269306,1,1,0,0,1,0,1,0,0,0,chain,33.7598878434953,-84.3917920135186
60,McDonald's,"['Fast Food', 'Burgers', 'Coffee & Tea']","(33.753825999999997, -84.392797000000002)",30303.0,$,1.5,24,POINT (-84.392797 33.753826),GA,Fulton,Atlanta,Downtown,269306,1,1,0,1,0,0,0,0,0,0,chain,33.753826,-84.392797
61,Waffle House,"['American (Traditional)', 'Breakfast & Brunch', 'Diners']","(33.757283861344703, -84.384376594578697)",30303.0,$,3.5,32,POINT (-84.3843765945787 33.7572838613447),GA,Fulton,Atlanta,Downtown,269306,1,1,0,0,1,0,1,0,0,0,chain,33.7572838613447,-84.3843765945787
62,Max Lager's Wood-Fired Grill & Brewery,"['American (Traditional)', 'Brewpubs', 'Sports Bars']","(33.763370000000002, -84.387079999999997)",30308.0,$$,3.5,655,POINT (-84.38708 33.76337),GA,Fulton,Atlanta,Downtown,269306,2,0,0,0,0,0,0,0,0,0,other,33.76337,-84.38708
63,Great Wraps,"['Breakfast & Brunch', 'Fast Food', 'Wraps']","(33.760750000000002, -84.387060000000005)",30303.0,$,2.0,12,POINT (-84.38706000000001 33.76075),GA,Fulton,Atlanta,Downtown,269306,1,0,0,0,1,0,0,0,0,0,breakfast_and_brunch,33.76075,-84.38706
64,Waffle House,"['Diners', 'Breakfast & Brunch', 'American (Traditional)']","(33.751232999999999, -84.385392800000005)",30303.0,$,3.5,47,POINT (-84.38539280000001 33.751233),GA,Fulton,Atlanta,Downtown,269306,1,1,0,0,1,0,1,0,0,0,chain,33.751233,-84.3853928
65,Le Petit Bistro,"['Breakfast & Brunch', 'Cafes']","(33.759062999999998, -84.395024000000006)",30303.0,$,1.0,1,POINT (-84.39502400000001 33.759063),GA,Fulton,Atlanta,Downtown,269306,1,0,0,1,1,0,0,0,0,0,breakfast_and_brunch,33.759063,-84.395024
66,Bailey's Office,"['Rehabilitation Center', 'Educational Services', 'Food']","(33.753051300000003, -84.387481300000005)",30303.0,$,3.0,1,POINT (-84.3874813 33.7530513),GA,Fulton,Atlanta,Downtown,269306,1,0,0,0,0,0,0,0,0,0,other,33.7530513,-84.3874813
67,Dancing Goats Coffee Bar,['Coffee & Tea'],"(33.771422989084201, -84.3674024200388)",30308.0,$,4.0,329,POINT (-84.3674024200388 33.7714229890842),GA,Fulton,Atlanta,Old Fourth Ward,269397,1,0,1,1,0,0,0,0,0,0,strictly_coffee,33.7714229890842,-84.3674024200388
68,Condesa Coffee,"['Coffee & Tea', 'Bars', 'Breakfast & Brunch']","(33.759774548924497, -84.371901615824598)",30312.0,$,4.0,246,POINT (-84.3719016158246 33.7597745489245),GA,Fulton,Atlanta,Old Fourth Ward,269397,1,0,0,1,1,0,0,0,0,0,breakfast_and_brunch,33.7597745489245,-84.3719016158246
69,Chrome Yellow Trading,"['Coffee & Tea', ""Men's Clothing"", ""Women's Clothing""]","(33.753959999999999, -84.370982999999995)",30312.0,$$,4.0,71,POINT (-84.370983 33.75396),GA,Fulton,Atlanta,Old Fourth Ward,269397,2,0,0,1,0,0,0,0,0,0,other,33.75396,-84.370983
70,Spiller Park Coffee,['Coffee & Tea'],"(33.772370000000002, -84.36609)",30308.0,$$,3.5,91,POINT (-84.36609 33.77237),GA,Fulton,Atlanta,Old Fourth Ward,269397,2,0,1,1,0,0,0,0,0,0,strictly_coffee,33.77237,-84.36609
71,Happy Tabby Cat Cafe,['Coffee & Tea'],"(33.757525111123996, -84.370085522532506)",30312.0,$,5.0,13,POINT (-84.37008552253251 33.757525111124),GA,Fulton,Atlanta,Old Fourth Ward,269397,1,0,1,1,0,0,0,0,0,0,strictly_coffee,33.757525111124,-84.3700855225325
72,Saint Germain,"['Sandwiches', 'Bakeries', 'Coffee & Tea']","(33.772370000000002, -84.36609)",30308.0,$,4.0,49,POINT (-84.36609 33.77237),GA,Fulton,Atlanta,Old Fourth Ward,269397,1,0,0,1,0,1,0,0,0,0,bakeries,33.77237,-84.36609
73,Highland Bakery,"['Bakeries', 'Breakfast & Brunch', 'Sandwiches']","(33.761201288682301, -84.366074593917901)",30312.0,$$,4.0,1317,POINT (-84.3660745939179 33.7612012886823),GA,Fulton,Atlanta,Old Fourth Ward,269397,2,1,0,0,1,1,0,0,0,0,chain,33.7612012886823,-84.3660745939179
74,Queen of Cream,"['Ice Cream & Frozen Yogurt', 'Coffee & Tea']","(33.761221999999997, -84.364480999999998)",30312.0,$,4.0,129,POINT (-84.364481 33.761222),GA,Fulton,Atlanta,Old Fourth Ward,269397,1,0,0,1,0,0,0,0,1,0,ice_cream_and_froyo,33.761222,-84.364481
75,Boulevard Bistro,['Coffee & Tea'],"(33.762275699999996, -84.374084499999995)",30312.0,$$,4.0,1,POINT (-84.3740845 33.7622757),GA,Fulton,Atlanta,Old Fourth Ward,269397,2,0,1,1,0,0,0,0,0,0,strictly_coffee,33.7622757,-84.3740845
76,Honeysuckle Gelato,"['Ice Cream & Frozen Yogurt', 'Gelato']","(33.7722038622654, -84.366358003982597)",30308.0,$,4.5,179,POINT (-84.3663580039826 33.7722038622654),GA,Fulton,Atlanta,Old Fourth Ward,269397,1,0,0,0,0,0,0,0,1,0,ice_cream_and_froyo,33.7722038622654,-84.3663580039826
77,LottaFrutta - Atlanta,"['Breakfast & Brunch', 'Caribbean', 'Sandwiches']","(33.756, -84.368089999999995)",30312.0,$,4.5,297,POINT (-84.36809 33.756),GA,Fulton,Atlanta,Old Fourth Ward,269397,1,0,0,0,1,0,0,0,0,0,breakfast_and_brunch,33.756,-84.36809
78,Dunkin' Donuts,"['Donuts', 'Coffee & Tea']","(33.773093971755003, -84.371415562927695)",30308.0,$,4.0,26,POINT (-84.37141556292769 33.773093971755),GA,Fulton,Atlanta,Old Fourth Ward,269397,1,1,0,1,0,0,0,0,0,0,chain,33.773093971755,-84.3714155629277
79,Bantam Pub,"['American (New)', 'Pubs', 'Breakfast & Brunch']","(33.766190000000002, -84.362979899999999)",30312.0,$$,4.0,264,POINT (-84.3629799 33.76619),GA,Fulton,Atlanta,Old Fourth Ward,269397,2,0,0,0,1,0,0,0,0,0,breakfast_and_brunch,33.76619,-84.3629799
80,Lucky Lotus,['Juice Bars & Smoothies'],"(33.772219999999997, -84.366069899999999)",30308.0,$$,3.5,59,POINT (-84.3660699 33.77222),GA,Fulton,Atlanta,Old Fourth Ward,269397,2,0,0,0,0,0,0,0,0,1,juice_and_smoothie,33.77222,-84.3660699
81,Batter Cookie Dough Counter,['Desserts'],"(33.772219999999997, -84.366069999999993)",30308.0,$,3.0,50,POINT (-84.36606999999999 33.77222),GA,Fulton,Atlanta,Old Fourth Ward,269397,1,0,0,0,0,0,0,0,0,0,other,33.77222,-84.36607
82,Thumbs Up Diner,['Breakfast & Brunch'],"(33.754145100000002, -84.368617)",30312.0,$,4.0,371,POINT (-84.368617 33.7541451),GA,Fulton,Atlanta,Old Fourth Ward,269397,1,0,0,0,1,0,0,0,0,0,breakfast_and_brunch,33.7541451,-84.368617
83,Baskin Robbins,['Ice Cream & Frozen Yogurt'],"(33.773181000000001, -84.371466999999996)",30308.0,$,2.5,8,POINT (-84.371467 33.773181),GA,Fulton,Atlanta,Old Fourth Ward,269397,1,0,0,0,0,0,0,0,1,0,ice_cream_and_froyo,33.773181,-84.371467
84,Jake's Ice Creams & Sorbets,['Ice Cream & Frozen Yogurt'],"(33.7578125, -84.365287780761705)",30312.0,$,3.5,178,POINT (-84.3652877807617 33.7578125),GA,Fulton,Atlanta,Old Fourth Ward,269397,1,0,0,0,0,0,0,0,1,0,ice_cream_and_froyo,33.7578125,-84.3652877807617
85,Octane Westside,"['Coffee & Tea', 'Cocktail Bars']","(33.779257741889602, -84.410189479208199)",30318.0,$,4.0,625,POINT (-84.4101894792082 33.7792577418896),GA,Fulton,Atlanta,Marietta Street Artery,403424,1,0,0,1,0,0,0,0,0,0,other,33.7792577418896,-84.4101894792082
86,Amélie's French Bakery & Café,"['Coffee & Tea', 'Cafes', 'Patisserie/Cake Shop']","(33.775329599999999, -84.406809999999993)",30318.0,$,4.0,384,POINT (-84.40680999999999 33.7753296),GA,Fulton,Atlanta,Marietta Street Artery,403424,1,0,0,1,0,0,0,0,0,0,other,33.7753296,-84.40681
87,Urban Grind Coffee House,['Coffee & Tea'],"(33.777968899999998, -84.409127400000003)",30318.0,$,4.0,84,POINT (-84.4091274 33.7779689),GA,Fulton,Atlanta,Marietta Street Artery,403424,1,0,1,1,0,0,0,0,0,0,strictly_coffee,33.7779689,-84.4091274
88,Pauley's Crêpe Bar,"['Bars', 'Breakfast & Brunch']","(33.777374705037403, -84.408228019317903)",30318.0,$$,3.0,93,POINT (-84.4082280193179 33.7773747050374),GA,Fulton,Atlanta,Marietta Street Artery,403424,2,0,0,0,1,0,0,0,0,0,breakfast_and_brunch,33.7773747050374,-84.4082280193179
89,Delia's Chicken Sausage Stand,"['Chicken Shop', 'Coffee & Tea', 'Delis']","(33.776452300000003, -84.407388900000001)",30318.0,$,4.0,253,POINT (-84.4073889 33.7764523),GA,Fulton,Atlanta,Marietta Street Artery,403424,1,0,0,1,0,0,0,1,0,0,deli,33.7764523,-84.4073889
90,Thumbs Up Diner,['Breakfast & Brunch'],"(33.774951465855203, -84.406650066375704)",30318.0,$,4.0,317,POINT (-84.4066500663757 33.7749514658552),GA,Fulton,Atlanta,Marietta Street Artery,403424,1,0,0,0,1,0,0,0,0,0,breakfast_and_brunch,33.7749514658552,-84.4066500663757
91,Hop City,"['Beer, Wine & Spirits', 'Beer Bar']","(33.778599999999997, -84.410659999999993)",30318.0,$$,4.5,181,POINT (-84.41065999999999 33.7786),GA,Fulton,Atlanta,Marietta Street Artery,403424,2,0,0,0,0,0,0,0,0,0,other,33.7786,-84.41066
92,Taproom Coffee,"['Coffee & Tea', 'Beer Bar']","(33.751849900000003, -84.323392200000001)",30317.0,$,4.5,167,POINT (-84.3233922 33.7518499),GA,Dekalb,Atlanta,Kirkwood,129705,1,0,0,1,0,0,0,0,0,0,other,33.7518499,-84.3233922
93,Le Petit Marché,"['Breakfast & Brunch', 'Sandwiches', 'Seafood']","(33.751669448641401, -84.322597159380393)",30317.0,$,4.5,866,POINT (-84.32259715938039 33.7516694486414),GA,Dekalb,Atlanta,Kirkwood,129705,1,0,0,0,1,0,0,0,0,0,breakfast_and_brunch,33.7516694486414,-84.3225971593804
94,Dulce Vegan Bakery and Cafe,"['Vegan', 'Bakeries']","(33.751284900000002, -84.322092499999997)",30317.0,$,4.5,221,POINT (-84.3220925 33.7512849),GA,Dekalb,Atlanta,Kirkwood,129705,1,0,0,0,0,1,0,0,0,0,bakeries,33.7512849,-84.3220925
95,Sun in My Belly,"['Breakfast & Brunch', 'American (New)', 'Wine Bars']","(33.76397, -84.316500000000005)",30317.0,$$,4.0,854,POINT (-84.3165 33.76397),GA,Dekalb,Atlanta,Kirkwood,129705,2,0,0,0,1,0,0,0,0,0,breakfast_and_brunch,33.76397,-84.3165
96,The Pullman,"['Gastropubs', 'Breakfast & Brunch']","(33.751285600000003, -84.322128300000003)",30317.0,$$,4.0,90,POINT (-84.3221283 33.7512856),GA,Dekalb,Atlanta,Kirkwood,129705,2,0,0,0,1,0,0,0,0,0,breakfast_and_brunch,33.7512856,-84.3221283
97,Land of a Thousand Hills Coffee,"['Cafes', 'Coffee & Tea', 'Beer, Wine & Spirits']","(33.793205999999998, -84.395570000000006)",30363.0,$,4.0,142,POINT (-84.39557000000001 33.793206),GA,Fulton,Atlanta,Atlantic Station,399509,1,0,0,1,0,0,0,0,0,0,other,33.793206,-84.39557
98,Salata,"['Salad', 'Desserts', 'Coffee & Tea']","(33.7934370005297, -84.396691023058807)",30363.0,$$,4.5,43,POINT (-84.39669102305881 33.7934370005297),GA,Fulton,Atlanta,Atlantic Station,399509,2,0,0,1,0,0,0,0,0,0,other,33.7934370005297,-84.3966910230588
99,Starbucks,['Coffee & Tea'],"(33.791382276753097, -84.398262429593402)",30363.0,$,2.0,19,POINT (-84.3982624295934 33.7913822767531),GA,Fulton,Atlanta,Atlantic Station,399509,1,1,1,1,0,0,0,0,0,0,chain,33.7913822767531,-84.3982624295934
100,Paris Bistro,"['Italian', 'Southern', 'Breakfast & Brunch']","(33.791591644287102, -84.393692016601605)",30363.0,$,3.5,13,POINT (-84.39369201660161 33.7915916442871),GA,Fulton,Atlanta,Atlantic Station,399509,1,0,0,0,1,0,0,0,0,0,breakfast_and_brunch,33.7915916442871,-84.3936920166016
101,Kilwin's,"['Ice Cream & Frozen Yogurt', 'Chocolatiers & Shops', 'Candy Stores']","(33.7931351214337, -84.397659916875099)",30363.0,$$,4.0,290,POINT (-84.3976599168751 33.7931351214337),GA,Fulton,Atlanta,Atlantic Station,399509,2,0,0,0,0,0,0,0,1,0,ice_cream_and_froyo,33.7931351214337,-84.3976599168751
102,Starbucks,['Coffee & Tea'],"(33.793202930232198, -84.399404749274296)",30363.0,$,2.5,14,POINT (-84.3994047492743 33.7932029302322),GA,Fulton,Atlanta,Atlantic Station,399509,1,1,1,1,0,0,0,0,0,0,chain,33.7932029302322,-84.3994047492743
103,Rising Roll Gourmet,"['Sandwiches', 'Salad', 'Breakfast & Brunch']","(33.791565955232699, -84.393773116171403)",30363.0,$$,4.0,5,POINT (-84.3937731161714 33.7915659552327),GA,Fulton,Atlanta,Atlantic Station,399509,2,0,0,0,1,0,0,0,0,0,breakfast_and_brunch,33.7915659552327,-84.3937731161714
104,Publix,['Grocery'],"(33.792529999999999, -84.397624899999997)",30363.0,$$,3.5,43,POINT (-84.3976249 33.79253),GA,Fulton,Atlanta,Atlantic Station,399509,2,1,0,0,0,0,0,0,0,0,chain,33.79253,-84.3976249
105,Meehan's Public House,"['Pubs', 'Irish', 'Breakfast & Brunch']","(33.793082154605699, -84.395775566212194)",30363.0,$$,3.5,160,POINT (-84.39577556621219 33.7930821546057),GA,Fulton,Atlanta,Atlantic Station,399509,2,0,0,0,1,0,0,0,0,0,breakfast_and_brunch,33.7930821546057,-84.3957755662122
106,Octane Atlanta Tech Village,"['Coffee & Tea', 'Cocktail Bars']","(33.848660000000002, -84.373329999999996)",30305.0,$,4.0,93,POINT (-84.37333 33.84866),GA,Fulton,Atlanta,North Buckhead,269391,1,0,0,1,0,0,0,0,0,0,other,33.84866,-84.37333
107,Duck Donuts,"['Donuts', 'Coffee & Tea', 'Breakfast & Brunch']","(33.854699699999998, -84.382264399999997)",30342.0,$,4.5,47,POINT (-84.3822644 33.8546997),GA,Fulton,Atlanta,North Buckhead,269391,1,0,0,1,1,0,0,0,0,0,breakfast_and_brunch,33.8546997,-84.3822644
108,Ebar,['Coffee & Tea'],"(33.852127500000002, -84.360818199999997)",30326.0,$,4.0,13,POINT (-84.3608182 33.8521275),GA,Fulton,Atlanta,North Buckhead,269391,1,0,1,1,0,0,0,0,0,0,strictly_coffee,33.8521275,-84.3608182
109,Starbucks,['Coffee & Tea'],"(33.844586, -84.371116000000001)",30305.0,$$,4.5,14,POINT (-84.371116 33.844586),GA,Fulton,Atlanta,North Buckhead,269391,2,1,1,1,0,0,0,0,0,0,chain,33.844586,-84.371116
110,Simmer Cafe,"['Cafes', 'Coffee & Tea']","(33.85172, -84.365949999999998)",30326.0,$$,4.0,7,POINT (-84.36595 33.85172),GA,Fulton,Atlanta,North Buckhead,269391,2,0,1,1,0,0,0,0,0,0,strictly_coffee,33.85172,-84.36595
111,Corner Bakery Cafe,"['Breakfast & Brunch', 'Cafes', 'Bakeries']","(33.848176889351102, -84.367320514848501)",30326.0,$,4.0,107,POINT (-84.3673205148485 33.8481768893511),GA,Fulton,Atlanta,North Buckhead,269391,1,0,0,1,1,1,0,0,0,0,bakeries,33.8481768893511,-84.3673205148485
112,The Café & Bar,"['American (New)', 'Cafes']","(33.8496341865904, -84.366561944858404)",30326.0,$$,4.5,6,POINT (-84.3665619448584 33.8496341865904),GA,Fulton,Atlanta,North Buckhead,269391,2,0,0,1,0,0,0,0,0,0,other,33.8496341865904,-84.3665619448584
113,Gallery Café,"['Cafes', 'Desserts', 'Breakfast & Brunch']","(33.854900100000002, -84.382525099999995)",30342.0,$$,3.5,23,POINT (-84.3825251 33.8549001),GA,Fulton,Atlanta,North Buckhead,269391,2,0,0,1,1,0,0,0,0,0,breakfast_and_brunch,33.8549001,-84.3825251
114,Starbucks,['Coffee & Tea'],"(33.872016906738303, -84.380630493164105)",30342.0,$$,3.0,26,POINT (-84.38063049316411 33.8720169067383),GA,Fulton,Atlanta,North Buckhead,269391,2,1,1,1,0,0,0,0,0,0,chain,33.8720169067383,-84.3806304931641
115,Buttermilk Kitchen,"['Breakfast & Brunch', 'Southern', 'American (New)']","(33.869860000000003, -84.380560000000003)",30342.0,$$,4.5,983,POINT (-84.38056 33.86986),GA,Fulton,Atlanta,North Buckhead,269391,2,0,0,0,1,0,0,0,0,0,breakfast_and_brunch,33.86986,-84.38056
116,Starbucks,['Coffee & Tea'],"(33.852127500000002, -84.360818199999997)",30326.0,$$,3.0,21,POINT (-84.3608182 33.8521275),GA,Fulton,Atlanta,North Buckhead,269391,2,1,1,1,0,0,0,0,0,0,chain,33.8521275,-84.3608182
117,Cafe 100,"['Cafes', 'American (Traditional)']","(33.8478813171387, -84.371376037597699)",30326.0,$,4.0,22,POINT (-84.3713760375977 33.8478813171387),GA,Fulton,Atlanta,North Buckhead,269391,1,0,0,1,0,0,0,0,0,0,other,33.8478813171387,-84.3713760375977
118,Cafe Bistro,"['Comfort Food', 'American (New)', 'Cafes']","(33.853280298202897, -84.361258147082495)",30326.0,$$,4.0,49,POINT (-84.36125814708249 33.8532802982029),GA,Fulton,Atlanta,North Buckhead,269391,2,0,0,1,0,0,0,0,0,0,other,33.8532802982029,-84.3612581470825
119,Flying Biscuit,"['Southern', 'Cafes']","(33.844871664960401, -84.371513278573602)",30305.0,$$,3.5,366,POINT (-84.3715132785736 33.8448716649604),GA,Fulton,Atlanta,North Buckhead,269391,2,0,0,1,0,0,0,0,0,0,other,33.8448716649604,-84.3715132785736
120,The Pinnacle Cafe,['Cafes'],"(33.851858399999998, -84.3608361)",30326.0,$,3.5,7,POINT (-84.3608361 33.8518584),GA,Fulton,Atlanta,North Buckhead,269391,1,0,1,1,0,0,0,0,0,0,strictly_coffee,33.8518584,-84.3608361
121,Arden's Garden,['Juice Bars & Smoothies'],"(33.858006600000003, -84.381105000000005)",30342.0,$,4.5,51,POINT (-84.38110500000001 33.8580066),GA,Fulton,Atlanta,North Buckhead,269391,1,1,0,0,0,0,0,0,0,1,chain,33.8580066,-84.381105
122,Market Street Café,['Cafes'],"(33.849871999999998, -84.374958000000007)",30305.0,$$,3.5,5,POINT (-84.37495800000001 33.849872),GA,Fulton,Atlanta,North Buckhead,269391,2,0,1,1,0,0,0,0,0,0,strictly_coffee,33.849872,-84.374958
123,Wildleaf Salads,"['Salad', 'Soup', 'Juice Bars & Smoothies']","(33.844933314059098, -84.371311627328396)",30305.0,$$,3.5,44,POINT (-84.3713116273284 33.8449333140591),GA,Fulton,Atlanta,North Buckhead,269391,2,0,0,0,0,0,0,0,0,1,juice_and_smoothie,33.8449333140591,-84.3713116273284
124,Jack's New Yorker Deli,"['Delis', 'Sandwiches', 'Breakfast & Brunch']","(33.845697337613501, -84.372057506250101)",30305.0,$,4.0,153,POINT (-84.3720575062501 33.8456973376135),GA,Fulton,Atlanta,North Buckhead,269391,1,0,0,0,1,0,0,1,0,0,deli,33.8456973376135,-84.3720575062501
125,Savi Provisions,"['Grocery', 'Beer, Wine & Spirits', 'Wine Tasting Room']","(33.854481100000001, -84.382525099999995)",30342.0,$$,4.0,31,POINT (-84.3825251 33.8544811),GA,Fulton,Atlanta,North Buckhead,269391,2,0,0,0,0,0,0,0,0,0,other,33.8544811,-84.3825251
126,To Go Bistro,"['Delis', 'Diners']","(33.854104599999999, -84.358678800000007)",30326.0,$,3.5,6,POINT (-84.35867880000001 33.8541046),GA,Fulton,Atlanta,North Buckhead,269391,1,0,0,0,0,0,1,1,0,0,diner,33.8541046,-84.3586788
127,Goldbergs Bagel Co,"['Delis', 'Breakfast & Brunch', 'Sandwiches']","(33.874033427547197, -84.380127017057902)",30342.0,$$,4.0,167,POINT (-84.3801270170579 33.8740334275472),GA,Fulton,Atlanta,North Buckhead,269391,2,0,0,0,1,0,0,1,0,0,deli,33.8740334275472,-84.3801270170579
128,Revelator Westside,['Coffee & Tea'],"(33.786180000000002, -84.411019999999994)",30318.0,$$,4.0,102,POINT (-84.41101999999999 33.78618),GA,Fulton,Atlanta,Home Park,269345,2,0,1,1,0,0,0,0,0,0,strictly_coffee,33.78618,-84.41102
129,Brash Coffee,['Coffee & Tea'],"(33.785544250831698, -84.411935132391903)",30318.0,$$,4.5,73,POINT (-84.4119351323919 33.7855442508317),GA,Fulton,Atlanta,Home Park,269345,2,0,1,1,0,0,0,0,0,0,strictly_coffee,33.7855442508317,-84.4119351323919
130,West Egg Café,"['Breakfast & Brunch', 'Sandwiches', 'Coffee & Tea']","(33.784374059609902, -84.412188377246096)",30318.0,$$,4.0,1198,POINT (-84.4121883772461 33.7843740596099),GA,Fulton,Atlanta,Home Park,269345,2,0,0,1,1,0,0,0,0,0,breakfast_and_brunch,33.7843740596099,-84.4121883772461
131,Dtox,"['Coffee & Tea', 'Juice Bars & Smoothies']","(33.785990300000002, -84.412010100000003)",30318.0,$$,4.0,10,POINT (-84.4120101 33.7859903),GA,Fulton,Atlanta,Home Park,269345,2,0,0,1,0,0,0,0,0,1,juice_and_smoothie,33.7859903,-84.4120101
132,Caffe Antico,"['Cafes', 'Coffee & Tea', 'Gelato']","(33.784228752270003, -84.405482484516895)",30318.0,$,3.5,45,POINT (-84.4054824845169 33.78422875227),GA,Fulton,Atlanta,Home Park,269345,1,0,0,1,0,0,0,0,0,0,other,33.78422875227,-84.4054824845169
133,Upbeet,"['Salad', 'Juice Bars & Smoothies', 'Vegan']","(33.784089999999999, -84.411349999999999)",30318.0,$$,4.5,299,POINT (-84.41135 33.78409),GA,Fulton,Atlanta,Home Park,269345,2,0,0,0,0,0,0,0,0,1,juice_and_smoothie,33.78409,-84.41135
134,Donetto,"['Italian', 'Desserts', 'Wine Bars']","(33.781269999999999, -84.41377)",30318.0,$$$,4.5,84,POINT (-84.41377 33.78127),GA,Fulton,Atlanta,Home Park,269345,3,0,0,0,0,0,0,0,0,0,other,33.78127,-84.41377
135,Holler & Dash Biscuit House,"['Southern', 'Breakfast & Brunch']","(33.784509999999997, -84.41113)",30318.0,$,4.0,177,POINT (-84.41113 33.78451),GA,Fulton,Atlanta,Home Park,269345,1,0,0,0,1,0,0,0,0,0,breakfast_and_brunch,33.78451,-84.41113
136,McDonald's,"['Fast Food', 'Burgers', 'Coffee & Tea']","(33.784942450374302, -84.406863222839107)",30318.0,$,2.5,41,POINT (-84.40686322283911 33.7849424503743),GA,Fulton,Atlanta,Home Park,269345,1,1,0,1,0,0,0,0,0,0,chain,33.7849424503743,-84.4068632228391
137,Caffé Gio,"['Cafes', 'Italian']","(33.784889999999997, -84.405664999999999)",30318.0,$,2.5,89,POINT (-84.405665 33.78489),GA,Fulton,Atlanta,Home Park,269345,1,0,0,1,0,0,0,0,0,0,other,33.78489,-84.405665
138,The Silver Skillet,['Breakfast & Brunch'],"(33.786369046386397, -84.3940410925035)",30318.0,$,3.5,327,POINT (-84.3940410925035 33.7863690463864),GA,Fulton,Atlanta,Home Park,269345,1,0,0,0,1,0,0,0,0,0,breakfast_and_brunch,33.7863690463864,-84.3940410925035
139,Chattahoochee Coffee Company,['Coffee & Tea'],"(33.787084385251603, -84.413723945772404)",30318.0,$,4.0,99,POINT (-84.4137239457724 33.7870843852516),GA,Fulton,Atlanta,Blandtown,403419,1,0,1,1,0,0,0,0,0,0,strictly_coffee,33.7870843852516,-84.4137239457724
140,The Warhorse Coffee Joint,['Coffee & Tea'],"(33.785371599999998, -84.417046299999996)",30318.0,$,4.5,14,POINT (-84.4170463 33.7853716),GA,Fulton,Atlanta,Blandtown,403419,1,0,1,1,0,0,0,0,0,0,strictly_coffee,33.7853716,-84.4170463
141,The Goat Farm,"['Music Venues', 'Coffee & Tea']","(33.787007099999997, -84.414254099999994)",30318.0,$,4.5,54,POINT (-84.41425409999999 33.7870071),GA,Fulton,Atlanta,Blandtown,403419,1,0,0,1,0,0,0,0,0,0,other,33.7870071,-84.4142541
142,Cafe Bella,['Coffee & Tea'],"(33.789720000000003, -84.425470000000004)",30318.0,$$,4.5,3,POINT (-84.42547 33.78972),GA,Fulton,Atlanta,Blandtown,403419,2,0,1,1,0,0,0,0,0,0,strictly_coffee,33.78972,-84.42547
143,Star Provisions,"['Cheese Shops', 'Meat Shops', 'Sandwiches']","(33.795476000000001, -84.427350000000004)",30318.0,$$,4.0,486,POINT (-84.42735 33.795476),GA,Fulton,Atlanta,Blandtown,403419,2,0,0,0,0,0,0,0,0,0,other,33.795476,-84.42735
144,Jeni's Splendid Ice Creams,['Ice Cream & Frozen Yogurt'],"(33.786876446036302, -84.412201855155999)",30318.0,$$,4.5,611,POINT (-84.412201855156 33.7868764460363),GA,Fulton,Atlanta,Blandtown,403419,2,0,0,0,0,0,0,0,1,0,ice_cream_and_froyo,33.7868764460363,-84.412201855156
145,Twisted Soul Cookhouse & Pours,"['Soul Food', 'Desserts', 'Southern']","(33.789171000241197, -84.4253452503266)",30318.0,$$,4.0,227,POINT (-84.4253452503266 33.7891710002412),GA,Fulton,Atlanta,Blandtown,403419,2,0,0,0,0,0,0,0,0,0,other,33.7891710002412,-84.4253452503266
146,BP,"['Gas Stations', 'Convenience Stores']","(33.800939800000002, -84.425318799999999)",30318.0,$$,2.5,5,POINT (-84.4253188 33.8009398),GA,Fulton,Atlanta,Blandtown,403419,2,0,0,0,0,0,0,0,0,0,other,33.8009398,-84.4253188
147,Octane Woodruff Arts Center,"['Coffee & Tea', 'Cocktail Bars']","(33.789158200000003, -84.384935100000007)",30309.0,$$,4.0,37,POINT (-84.38493510000001 33.7891582),GA,Fulton,Atlanta,Midtown,269381,2,0,0,1,0,0,0,0,0,0,other,33.7891582,-84.3849351
148,Revelator SQ5,['Coffee & Tea'],"(33.778185071723499, -84.389217657713601)",30308.0,$,4.0,26,POINT (-84.3892176577136 33.7781850717235),GA,Fulton,Atlanta,Midtown,269381,1,0,1,1,0,0,0,0,0,0,strictly_coffee,33.7781850717235,-84.3892176577136
149,Dancing Goats Coffee Bar,['Coffee & Tea'],"(33.780765000000002, -84.386206999999999)",30309.0,$,3.5,39,POINT (-84.386207 33.780765),GA,Fulton,Atlanta,Midtown,269381,1,0,1,1,0,0,0,0,0,0,strictly_coffee,33.780765,-84.386207
150,Buffalo Bayou Coffee,['Coffee & Tea'],"(33.772735001483902, -84.384712819513197)",30308.0,$,4.5,4,POINT (-84.3847128195132 33.7727350014839),GA,Fulton,Atlanta,Midtown,269381,1,0,1,1,0,0,0,0,0,0,strictly_coffee,33.7727350014839,-84.3847128195132
151,Land of a Thousand Hills Midtown,"['Coffee & Tea', 'Bakeries']","(33.773980000000002, -84.383939999999996)",30308.0,$$,4.0,15,POINT (-84.38394 33.77398),GA,Fulton,Atlanta,Midtown,269381,2,0,0,1,0,1,0,0,0,0,bakeries,33.77398,-84.38394
152,Sweet Hut Bakery & Cafe,"['Coffee & Tea', 'Bakeries', 'Sandwiches']","(33.780271800000001, -84.383950799999994)",30309.0,$,4.0,512,POINT (-84.38395079999999 33.7802718),GA,Fulton,Atlanta,Midtown,269381,1,0,0,1,0,1,0,0,0,0,bakeries,33.7802718,-84.3839508
153,Huge Café,['Coffee & Tea'],"(33.792234680716199, -84.386328645050497)",30309.0,$$,3.5,29,POINT (-84.3863286450505 33.7922346807162),GA,Fulton,Atlanta,Midtown,269381,2,0,1,1,0,0,0,0,0,0,strictly_coffee,33.7922346807162,-84.3863286450505
154,Joy Cafe,"['Breakfast & Brunch', 'Cafes', 'Southern']","(33.784801999999999, -84.383542000000006)",30309.0,$$,4.5,620,POINT (-84.38354200000001 33.784802),GA,Fulton,Atlanta,Midtown,269381,2,0,0,1,1,0,0,0,0,0,breakfast_and_brunch,33.784802,-84.383542
155,Caribou Coffee,['Coffee & Tea'],"(33.786163000000002, -84.385300000000001)",30309.0,$,4.5,2,POINT (-84.3853 33.786163),GA,Fulton,Atlanta,Midtown,269381,1,1,1,1,0,0,0,0,0,0,chain,33.786163,-84.3853
156,Caribou Coffee,['Coffee & Tea'],"(33.782161712646499, -84.380683898925795)",30309.0,$,3.5,125,POINT (-84.3806838989258 33.7821617126465),GA,Fulton,Atlanta,Midtown,269381,1,1,1,1,0,0,0,0,0,0,chain,33.7821617126465,-84.3806838989258
157,Empire State South,"['Southern', 'Cocktail Bars', 'Coffee & Tea']","(33.7811016, -84.383716300000003)",30309.0,$$$,4.0,705,POINT (-84.3837163 33.7811016),GA,Fulton,Atlanta,Midtown,269381,3,0,0,1,0,0,0,0,0,0,other,33.7811016,-84.3837163
158,Cafe Intermezzo,"['Cafes', 'Bars', 'Creperies']","(33.783311014109202, -84.383556622090197)",30309.0,$$,3.5,716,POINT (-84.3835566220902 33.7833110141092),GA,Fulton,Atlanta,Midtown,269381,2,0,0,1,0,0,0,0,0,0,other,33.7833110141092,-84.3835566220902
159,The Bean Counter Promenade,"['Coffee & Tea', 'Juice Bars & Smoothies']","(33.787411631828199, -84.385441520908898)",30309.0,$,4.0,6,POINT (-84.3854415209089 33.7874116318282),GA,Fulton,Atlanta,Midtown,269381,1,0,0,1,0,0,0,0,0,1,juice_and_smoothie,33.7874116318282,-84.3854415209089
160,Caribou Coffee & Einstein Bros Bagels,"['Coffee & Tea', 'Bagels']","(33.786212112260102, -84.382990038684497)",30309.0,$$,3.0,6,POINT (-84.3829900386845 33.7862121122601),GA,Fulton,Atlanta,Midtown,269381,2,0,0,1,0,0,0,0,0,0,other,33.7862121122601,-84.3829900386845
161,Highland Bakery Midtown,"['Bakeries', 'Coffee & Tea']","(33.786782844439699, -84.3841835761704)",30309.0,$$,3.0,156,POINT (-84.3841835761704 33.7867828444397),GA,Fulton,Atlanta,Midtown,269381,2,0,0,1,0,1,0,0,0,0,bakeries,33.7867828444397,-84.3841835761704
162,Starbucks,['Coffee & Tea'],"(33.782261152596597, -84.383083386230496)",30309.0,$,3.5,18,POINT (-84.3830833862305 33.7822611525966),GA,Fulton,Atlanta,Midtown,269381,1,1,1,1,0,0,0,0,0,0,chain,33.7822611525966,-84.3830833862305
163,Tiff's Treats,"['Desserts', 'Bakeries', 'Cafes']","(33.777751100000003, -84.388944100000003)",30308.0,$$,4.5,43,POINT (-84.3889441 33.7777511),GA,Fulton,Atlanta,Midtown,269381,2,0,0,1,0,1,0,0,0,0,bakeries,33.7777511,-84.3889441
164,Babs,['Breakfast & Brunch'],"(33.776760000000003, -84.383170000000007)",30308.0,$$,4.0,544,POINT (-84.38317000000001 33.77676),GA,Fulton,Atlanta,Midtown,269381,2,0,0,0,1,0,0,0,0,0,breakfast_and_brunch,33.77676,-84.38317
165,Green Market,['Farmers Market'],"(33.783859999999997, -84.378749999999997)",30309.0,$$,4.0,23,POINT (-84.37875 33.78386),GA,Fulton,Atlanta,Midtown,269381,2,0,0,0,0,0,0,0,0,0,other,33.78386,-84.37875
166,Cafe Mims,"['French', 'Bakeries']","(33.772579999999998, -84.384469899999999)",30308.0,$$,3.5,7,POINT (-84.3844699 33.77258),GA,Fulton,Atlanta,Midtown,269381,2,0,0,0,0,1,0,0,0,0,bakeries,33.77258,-84.3844699
167,Starbucks,['Coffee & Tea'],"(33.780199813183799, -84.368820317836096)",30308.0,$,3.5,58,POINT (-84.3688203178361 33.7801998131838),GA,Fulton,Atlanta,Midtown,269381,1,1,1,1,0,0,0,0,0,0,chain,33.7801998131838,-84.3688203178361
168,Vitality Bowls,"['Acai Bowls', 'Coffee & Tea', 'Juice Bars & Smoothies']","(33.777790000000003, -84.383899999999997)",30308.0,$$,3.5,84,POINT (-84.3839 33.77779),GA,Fulton,Atlanta,Midtown,269381,2,0,0,1,0,0,0,0,0,1,juice_and_smoothie,33.77779,-84.3839
169,Cafe Kia-Ora,"['Cafes', 'Sandwiches', 'American (Traditional)']","(33.775368700000001, -84.387175099999993)",30308.0,$,4.0,61,POINT (-84.38717509999999 33.7753687),GA,Fulton,Atlanta,Midtown,269381,1,0,0,1,0,0,0,0,0,0,other,33.7753687,-84.3871751
170,Krispy Kreme,"['Coffee & Tea', 'Donuts']","(33.772120000000001, -84.378129999999999)",30308.0,$,4.0,195,POINT (-84.37813 33.77212),GA,Fulton,Atlanta,Midtown,269381,1,0,0,1,0,0,0,0,0,0,other,33.77212,-84.37813
171,Starbucks,['Coffee & Tea'],"(33.778432995226403, -84.384072951966601)",30308.0,$,3.0,82,POINT (-84.3840729519666 33.7784329952264),GA,Fulton,Atlanta,Midtown,269381,1,1,1,1,0,0,0,0,0,0,chain,33.7784329952264,-84.3840729519666
172,Starbucks,['Coffee & Tea'],"(33.776685100000002, -84.3884398)",30308.0,$$,3.0,23,POINT (-84.3884398 33.7766851),GA,Fulton,Atlanta,Midtown,269381,2,1,1,1,0,0,0,0,0,0,chain,33.7766851,-84.3884398
173,Starbucks,['Coffee & Tea'],"(33.78633, -84.387029999999996)",30309.0,$,3.0,67,POINT (-84.38703 33.78633),GA,Fulton,Atlanta,Midtown,269381,1,1,1,1,0,0,0,0,0,0,chain,33.78633,-84.38703
174,Arden's Garden,['Juice Bars & Smoothies'],"(33.780960175891998, -84.384524579539004)",30309.0,$,4.0,42,POINT (-84.384524579539 33.780960175892),GA,Fulton,Atlanta,Midtown,269381,1,1,0,0,0,0,0,0,0,1,chain,33.780960175892,-84.384524579539
175,Arden's Garden,['Juice Bars & Smoothies'],"(33.781379699707003, -84.368400573730497)",30308.0,$,4.5,75,POINT (-84.3684005737305 33.781379699707),GA,Fulton,Atlanta,Midtown,269381,1,1,0,0,0,0,0,0,0,1,chain,33.781379699707,-84.3684005737305
176,Atwoods Pizza Cafe,"['Pizza', 'Breakfast & Brunch']","(33.777412592640403, -84.387033916853895)",30308.0,$$,4.5,143,POINT (-84.38703391685389 33.7774125926404),GA,Fulton,Atlanta,Midtown,269381,2,0,0,0,1,0,0,0,0,0,breakfast_and_brunch,33.7774125926404,-84.3870339168539
177,The Flying Biscuit Cafe,"['Breakfast & Brunch', 'American (Traditional)', 'Southern']","(33.781999999999996, -84.38015)",30309.0,$$,4.0,1082,POINT (-84.38015 33.782),GA,Fulton,Atlanta,Midtown,269381,2,0,0,0,1,0,0,0,0,0,breakfast_and_brunch,33.782,-84.38015
178,Dunkin' Donuts,"['Donuts', 'Coffee & Tea']","(33.7734142617388, -84.386927624367502)",30308.0,$,3.0,13,POINT (-84.3869276243675 33.7734142617388),GA,Fulton,Atlanta,Midtown,269381,1,1,0,1,0,0,0,0,0,0,chain,33.7734142617388,-84.3869276243675
179,Au Bon Pain,['Bakeries'],"(33.785400000000003, -84.384799999999998)",30309.0,$$,3.0,11,POINT (-84.3848 33.7854),GA,Fulton,Atlanta,Midtown,269381,2,0,0,0,0,1,0,0,0,0,bakeries,33.7854,-84.3848
180,Starbucks,['Coffee & Tea'],"(33.773613739727097, -84.365901947021499)",30308.0,$,3.5,49,POINT (-84.3659019470215 33.7736137397271),GA,Fulton,Atlanta,Midtown,269381,1,1,1,1,0,0,0,0,0,0,chain,33.7736137397271,-84.3659019470215
181,Einstein Bros Bagels,"['Bagels', 'Coffee & Tea']","(33.776774920138202, -84.384633153677001)",30308.0,$,2.5,58,POINT (-84.384633153677 33.7767749201382),GA,Fulton,Atlanta,Midtown,269381,1,0,0,1,0,0,0,0,0,0,other,33.7767749201382,-84.384633153677
182,Carolyn's Gourmet Cafe,"['Sandwiches', 'Pizza', 'Cafes']","(33.787071099999999, -84.387359900000007)",30309.0,$,3.5,49,POINT (-84.38735990000001 33.7870711),GA,Fulton,Atlanta,Midtown,269381,1,0,0,1,0,0,0,0,0,0,other,33.7870711,-84.3873599
183,Kale Me Crazy,"['Juice Bars & Smoothies', 'Salad', 'Wraps']","(33.777810000000002, -84.383309999999994)",30308.0,$$,4.0,83,POINT (-84.38330999999999 33.77781),GA,Fulton,Atlanta,Midtown,269381,2,1,0,0,0,0,0,0,0,1,chain,33.77781,-84.38331
184,Tropical Smoothie Cafe,"['Cafes', 'Juice Bars & Smoothies']","(33.779917590826599, -84.388963901823004)",30309.0,$,4.0,11,POINT (-84.388963901823 33.7799175908266),GA,Fulton,Atlanta,Midtown,269381,1,0,0,1,0,0,0,0,0,1,juice_and_smoothie,33.7799175908266,-84.388963901823
185,MetroFresh,"['Soup', 'Salad', 'Breakfast & Brunch']","(33.780254978404898, -84.368364129569301)",30308.0,$$,4.0,269,POINT (-84.3683641295693 33.7802549784049),GA,Fulton,Atlanta,Midtown,269381,2,0,0,0,1,0,0,0,0,0,breakfast_and_brunch,33.7802549784049,-84.3683641295693
186,Fresh To Order,"['Salad', 'Breakfast & Brunch', 'Sandwiches']","(33.778266510474197, -84.384550208305697)",30303.0,$$,4.0,96,POINT (-84.3845502083057 33.7782665104742),GA,Fulton,Atlanta,Midtown,269381,2,0,0,0,1,0,0,0,0,0,breakfast_and_brunch,33.7782665104742,-84.3845502083057
187,Park 75 Lounge and Terrace,"['Lounges', 'Desserts', 'Wine Bars']","(33.786583999999998, -84.385195999999993)",30309.0,$$$,3.5,21,POINT (-84.38519599999999 33.786584),GA,Fulton,Atlanta,Midtown,269381,3,0,0,0,0,0,0,0,0,0,other,33.786584,-84.385196
188,Park 75 Restaurant,"['American (New)', 'Steakhouses', 'Breakfast & Brunch']","(33.786361420653101, -84.3853533267975)",30309.0,$$$,4.0,75,POINT (-84.3853533267975 33.7863614206531),GA,Fulton,Atlanta,Midtown,269381,3,0,0,0,1,0,0,0,0,0,breakfast_and_brunch,33.7863614206531,-84.3853533267975
189,10th & Piedmont,"['Breakfast & Brunch', 'Southern', 'American (Traditional)']","(33.781603798270197, -84.380433484911904)",30309.0,$$,3.5,393,POINT (-84.3804334849119 33.7816037982702),GA,Fulton,Atlanta,Midtown,269381,2,0,0,0,1,0,0,0,0,0,breakfast_and_brunch,33.7816037982702,-84.3804334849119
190,Jason's Deli,"['Delis', 'Sandwiches', 'Salad']","(33.7819249, -84.379888199999996)",30309.0,$,3.5,94,POINT (-84.3798882 33.7819249),GA,Fulton,Atlanta,Midtown,269381,1,0,0,0,0,0,0,1,0,0,deli,33.7819249,-84.3798882
191,The Lawrence,"['American (New)', 'Cocktail Bars', 'Breakfast & Brunch']","(33.779101599999997, -84.382495399999996)",30309.0,$$,4.0,488,POINT (-84.3824954 33.7791016),GA,Fulton,Atlanta,Midtown,269381,2,0,0,0,1,0,0,0,0,0,breakfast_and_brunch,33.7791016,-84.3824954
192,Proscnium Cafe and Market,['Cafes'],"(33.7863159179688, -84.383705139160199)",30309.0,$,3.5,6,POINT (-84.3837051391602 33.7863159179688),GA,Fulton,Atlanta,Midtown,269381,1,0,1,1,0,0,0,0,0,0,strictly_coffee,33.7863159179688,-84.3837051391602
193,Savi Provisions,"['Grocery', 'Beer, Wine & Spirits']","(33.781051699999999, -84.384307699999994)",30309.0,$$,3.5,40,POINT (-84.38430769999999 33.7810517),GA,Fulton,Atlanta,Midtown,269381,2,0,0,0,0,0,0,0,0,0,other,33.7810517,-84.3843077
194,South City Kitchen - Midtown,"['Southern', 'Breakfast & Brunch', 'Gluten-Free']","(33.786000000000001, -84.384559899999999)",30309.0,$$,4.5,2005,POINT (-84.3845599 33.786),GA,Fulton,Atlanta,Midtown,269381,2,0,0,0,1,0,0,0,0,0,breakfast_and_brunch,33.786,-84.3845599
195,McDonald's,"['Fast Food', 'Burgers', 'Coffee & Tea']","(33.774293753119899, -84.369585961103397)",30308.0,$,2.0,55,POINT (-84.3695859611034 33.7742937531199),GA,Fulton,Atlanta,Midtown,269381,1,1,0,1,0,0,0,0,0,0,chain,33.7742937531199,-84.3695859611034
196,Lure,"['Seafood', 'Breakfast & Brunch', 'Bars']","(33.785003662109403, -84.384521484375)",30309.0,$$$,4.0,444,POINT (-84.384521484375 33.7850036621094),GA,Fulton,Atlanta,Midtown,269381,3,0,0,0,1,0,0,0,0,0,breakfast_and_brunch,33.7850036621094,-84.384521484375
197,J. Christopher's,['Breakfast & Brunch'],"(33.780059000000001, -84.388114000000002)",30309.0,$$,3.0,119,POINT (-84.388114 33.780059),GA,Fulton,Atlanta,Midtown,269381,2,0,0,0,1,0,0,0,0,0,breakfast_and_brunch,33.780059,-84.388114
198,Smoothie King,"['Health Markets', 'Juice Bars & Smoothies']","(33.781999999999996, -84.38015)",30309.0,$,3.0,16,POINT (-84.38015 33.782),GA,Fulton,Atlanta,Midtown,269381,1,1,0,0,0,0,0,0,0,1,chain,33.782,-84.38015
199,Street Food Thursdays,"['Food Stands', 'Street Vendors']","(33.784452999999999, -84.383090999999993)",30309.0,$,4.0,39,POINT (-84.38309099999999 33.784453),GA,Fulton,Atlanta,Midtown,269381,1,0,0,0,0,0,0,0,0,0,other,33.784453,-84.383091
200,Torched Hop Brewing,"['Gastropubs', 'Breweries', 'American (Traditional)']","(33.772260000000003, -84.379279999999994)",30308.0,$$,4.0,208,POINT (-84.37927999999999 33.77226),GA,Fulton,Atlanta,Midtown,269381,2,0,0,0,0,0,0,0,0,0,other,33.77226,-84.37928
201,The Federal,"['French', 'Breakfast & Brunch', 'American (Traditional)']","(33.783873999999997, -84.384393000000003)",30309.0,$$$,3.5,80,POINT (-84.384393 33.783874),GA,Fulton,Atlanta,Midtown,269381,3,0,0,0,1,0,0,0,0,0,breakfast_and_brunch,33.783874,-84.384393
202,QuikTrip,['Convenience Stores'],"(33.777790000000003, -84.383899999999997)",30308.0,$,3.5,20,POINT (-84.3839 33.77779),GA,Fulton,Atlanta,Midtown,269381,1,0,0,0,0,0,0,0,0,0,other,33.77779,-84.3839
203,Yogli Mogli,['Ice Cream & Frozen Yogurt'],"(33.777030199999999, -84.390181799999993)",30308.0,$,3.5,25,POINT (-84.39018179999999 33.7770302),GA,Fulton,Atlanta,Midtown,269381,1,0,0,0,0,0,0,0,1,0,ice_cream_and_froyo,33.7770302,-84.3901818
204,Simon's Restaurant,"['American (Traditional)', 'Southern', 'Breakfast & Brunch']","(33.776136000000001, -84.382823999999999)",30308.0,$$,4.0,56,POINT (-84.382824 33.776136),GA,Fulton,Atlanta,Midtown,269381,2,0,0,0,1,0,0,0,0,0,breakfast_and_brunch,33.776136,-84.382824
205,Einstein's,"['American (New)', 'Breakfast & Brunch']","(33.784042358398402, -84.381988525390597)",30309.0,$$,3.0,560,POINT (-84.3819885253906 33.7840423583984),GA,Fulton,Atlanta,Midtown,269381,2,0,0,0,1,0,0,0,0,0,breakfast_and_brunch,33.7840423583984,-84.3819885253906
206,Publix,['Grocery'],"(33.780460595815001, -84.388785428573996)",30309.0,$$,3.5,95,POINT (-84.388785428574 33.780460595815),GA,Fulton,Atlanta,Midtown,269381,2,1,0,0,0,0,0,0,0,0,chain,33.780460595815,-84.388785428574
207,Midtown News,['Convenience Stores'],"(33.784880000000001, -84.383650000000003)",30309.0,$,4.5,3,POINT (-84.38365 33.78488),GA,Fulton,Atlanta,Midtown,269381,1,0,0,0,0,0,0,0,0,0,other,33.78488,-84.38365
208,Waffle House,"['Breakfast & Brunch', 'Diners', 'American (New)']","(33.7766341257338, -84.389424573046895)",30308.0,$,3.0,90,POINT (-84.3894245730469 33.7766341257338),GA,Fulton,Atlanta,Midtown,269381,1,1,0,0,1,0,1,0,0,0,chain,33.7766341257338,-84.3894245730469
209,Whole Foods Market - Ponce,['Grocery'],"(33.7750062, -84.365837799999994)",30308.0,$$$,3.5,259,POINT (-84.36583779999999 33.7750062),GA,Fulton,Atlanta,Midtown,269381,3,0,0,0,0,0,0,0,0,0,other,33.7750062,-84.3658378
210,Bruster's Real Ice Cream,['Ice Cream & Frozen Yogurt'],"(33.779378315041001, -84.367833010877703)",30308.0,$,3.5,10,POINT (-84.3678330108777 33.779378315041),GA,Fulton,Atlanta,Midtown,269381,1,0,0,0,0,0,0,0,1,0,ice_cream_and_froyo,33.779378315041,-84.3678330108777
211,Bar Crema,"['Coffee & Tea', 'Bakeries']","(33.843154599999998, -84.380884699999996)",30305.0,$,4.5,4,POINT (-84.3808847 33.8431546),GA,Fulton,Atlanta,South Tuxedo Park,269434,1,0,0,1,0,1,0,0,0,0,bakeries,33.8431546,-84.3808847
212,Henri's Bakery & Café,"['Bakeries', 'Delis', 'Desserts']","(33.843154599999998, -84.380884699999996)",30305.0,$,3.5,165,POINT (-84.3808847 33.8431546),GA,Fulton,Atlanta,South Tuxedo Park,269434,1,0,0,0,0,1,0,1,0,0,deli,33.8431546,-84.3808847
213,Whole Foods Market,['Grocery'],"(33.840919, -84.381738999999996)",30305.0,$$$,4.0,160,POINT (-84.381739 33.840919),GA,Fulton,Atlanta,South Tuxedo Park,269434,3,0,0,0,0,0,0,0,0,0,other,33.840919,-84.381739
214,Big Sky Buckhead,"['American (New)', 'Breakfast & Brunch']","(33.842018099999997, -84.380172700000003)",30305.0,$$,3.5,143,POINT (-84.3801727 33.8420181),GA,Fulton,Atlanta,South Tuxedo Park,269434,2,0,0,0,1,0,0,0,0,0,breakfast_and_brunch,33.8420181,-84.3801727
215,SAMA Food for Balance,"['Juice Bars & Smoothies', 'Health Markets']","(33.842979999999997, -84.381039999999999)",30305.0,$$,3.5,24,POINT (-84.38104 33.84298),GA,Fulton,Atlanta,South Tuxedo Park,269434,2,0,0,0,0,0,0,0,0,1,juice_and_smoothie,33.84298,-84.38104
216,Hodgepodge Coffeehouse & Gallery,"['Coffee & Tea', 'Bakeries']","(33.734517500000003, -84.349056399999995)",30316.0,$,4.0,197,POINT (-84.34905639999999 33.7345175),GA,Dekalb,Atlanta,East Atlanta,128368,1,0,0,1,0,1,0,0,0,0,bakeries,33.7345175,-84.3490564
217,Joe's East Atlanta Coffee Shop,['Coffee & Tea'],"(33.740372440712903, -84.345458473347904)",30316.0,$,4.0,175,POINT (-84.3454584733479 33.7403724407129),GA,Dekalb,Atlanta,East Atlanta,128368,1,0,1,1,0,0,0,0,0,0,strictly_coffee,33.7403724407129,-84.3454584733479
218,Happy Donuts,"['Donuts', 'Bagels', 'Pizza']","(33.743510000000001, -84.348370000000003)",30316.0,$,3.0,51,POINT (-84.34837 33.74351),GA,Dekalb,Atlanta,East Atlanta,128368,1,0,0,0,0,0,0,0,0,0,other,33.74351,-84.34837
219,Bond Organic Market,"['Farmers Market', 'Organic Stores']","(33.7395805831923, -84.345941317149396)",30316.0,$$,3.5,2,POINT (-84.3459413171494 33.7395805831923),GA,Dekalb,Atlanta,East Atlanta,128368,2,0,0,0,0,0,0,0,0,0,other,33.7395805831923,-84.3459413171494
220,Emerald City Bagels,['Bagels'],"(33.739960000000004, -84.346459999999993)",30316.0,$$,4.0,58,POINT (-84.34645999999999 33.73996),GA,Dekalb,Atlanta,East Atlanta,128368,2,0,0,0,0,0,0,0,0,0,other,33.73996,-84.34646
221,Get Fruity Cafe,"['Juice Bars & Smoothies', 'Wraps', 'Salad']","(33.740480499999997, -84.346303399999996)",30316.0,$,3.5,12,POINT (-84.3463034 33.7404805),GA,Dekalb,Atlanta,East Atlanta,128368,1,0,0,0,0,0,0,0,0,1,juice_and_smoothie,33.7404805,-84.3463034
222,Shell,"['Gas Stations', 'Convenience Stores']","(33.743599988035598, -84.349040240049405)",30316.0,$$,3.0,5,POINT (-84.3490402400494 33.7435999880356),GA,Dekalb,Atlanta,East Atlanta,128368,2,0,0,0,0,0,0,0,0,0,other,33.7435999880356,-84.3490402400494
223,Press and Grind,"['Coffee & Tea', 'Bakeries', 'Gluten-Free']","(33.781726900000002, -84.3543679)",30306.0,$,4.0,89,POINT (-84.3543679 33.7817269),GA,Fulton,Atlanta,Virginia Highland,275890,1,0,0,1,0,1,0,0,0,0,bakeries,33.7817269,-84.3543679
224,8ARM,"['Cafes', 'American (New)', 'Breakfast & Brunch']","(33.7738023, -84.364226000000002)",30306.0,$$,3.5,131,POINT (-84.364226 33.7738023),GA,Fulton,Atlanta,Virginia Highland,275890,2,0,0,1,1,0,0,0,0,0,breakfast_and_brunch,33.7738023,-84.364226
225,San Francisco Coffee Roasting Co,['Coffee & Tea'],"(33.787246699999997, -84.355491599999993)",30306.0,$,3.5,152,POINT (-84.35549159999999 33.7872467),GA,Fulton,Atlanta,Virginia Highland,275890,1,0,1,1,0,0,0,0,0,0,strictly_coffee,33.7872467,-84.3554916
226,Callie's Hot Little Biscuit,"['Coffee & Tea', 'Bakeries', 'Sandwiches']","(33.782483003561701, -84.354483829093397)",30306.0,$,4.0,189,POINT (-84.3544838290934 33.7824830035617),GA,Fulton,Atlanta,Virginia Highland,275890,1,0,0,1,0,1,0,0,0,0,bakeries,33.7824830035617,-84.3544838290934
227,Tipple & Rose Tea Parlor and Apothecary,"['Tea Rooms', 'Cafes', 'Breakfast & Brunch']","(33.776471299999997, -84.352614900000006)",30306.0,$$,3.5,116,POINT (-84.35261490000001 33.7764713),GA,Fulton,Atlanta,Virginia Highland,275890,2,0,0,1,1,0,0,0,0,0,breakfast_and_brunch,33.7764713,-84.3526149
228,Cacao Atlanta Chocolate,"['Desserts', 'Chocolatiers & Shops']","(33.783180000000002, -84.354870000000005)",30306.0,$$$,3.0,84,POINT (-84.35487000000001 33.78318),GA,Fulton,Atlanta,Virginia Highland,275890,3,0,0,0,0,0,0,0,0,0,other,33.78318,-84.35487
229,Java Jive Coffee House and Cafe,['Breakfast & Brunch'],"(33.774169899999997, -84.361488300000005)",30306.0,$,3.5,176,POINT (-84.3614883 33.7741699),GA,Fulton,Atlanta,Virginia Highland,275890,1,0,0,0,1,0,0,0,0,0,breakfast_and_brunch,33.7741699,-84.3614883
230,Honey Bubble,"['Bubble Tea', 'Tea Rooms']","(33.773933399999997, -84.361167899999998)",30306.0,$,3.5,423,POINT (-84.3611679 33.7739334),GA,Fulton,Atlanta,Virginia Highland,275890,1,0,0,0,0,0,0,0,0,0,other,33.7739334,-84.3611679
231,Tuscany at Your Table,"['Delis', 'Specialty Food', 'Italian']","(33.7832145, -84.354668799999999)",30306.0,$,5.0,14,POINT (-84.3546688 33.7832145),GA,Fulton,Atlanta,Virginia Highland,275890,1,0,0,0,0,0,0,1,0,0,deli,33.7832145,-84.3546688
232,Murphy's,"['American (Traditional)', 'Breakfast & Brunch', 'Desserts']","(33.782089900000003, -84.354870000000005)",30306.0,$$,4.0,891,POINT (-84.35487000000001 33.7820899),GA,Fulton,Atlanta,Virginia Highland,275890,2,0,0,0,1,0,0,0,0,0,breakfast_and_brunch,33.7820899,-84.35487
233,D B A Barbecue,"['Barbeque', 'Bars', 'Breakfast & Brunch']","(33.787197200000001, -84.355485099999996)",30306.0,$$,3.5,520,POINT (-84.3554851 33.7871972),GA,Fulton,Atlanta,Virginia Highland,275890,2,0,0,0,1,0,0,0,0,0,breakfast_and_brunch,33.7871972,-84.3554851
234,Yogli Mogli,['Ice Cream & Frozen Yogurt'],"(33.7819, -84.354500000000002)",30306.0,$,4.0,65,POINT (-84.3545 33.7819),GA,Fulton,Atlanta,Virginia Highland,275890,1,0,0,0,0,0,0,0,1,0,ice_cream_and_froyo,33.7819,-84.3545
235,Paolos Gelato Italiano,"['Ice Cream & Frozen Yogurt', 'Desserts', 'Gelato']","(33.782251600000002, -84.353484699999996)",30306.0,$,4.0,240,POINT (-84.3534847 33.7822516),GA,Fulton,Atlanta,Virginia Highland,275890,1,0,0,0,0,0,0,0,1,0,ice_cream_and_froyo,33.7822516,-84.3534847
236,American Roadhouse,"['American (Traditional)', 'Breakfast & Brunch']","(33.777464817466303, -84.352759047242898)",30306.0,$$,3.5,177,POINT (-84.3527590472429 33.7774648174663),GA,Fulton,Atlanta,Virginia Highland,275890,2,0,0,0,1,0,0,0,0,0,breakfast_and_brunch,33.7774648174663,-84.3527590472429
237,La Tavola Trattoria,"['Italian', 'Breakfast & Brunch']","(33.782446200000003, -84.354939900000005)",30306.0,$$,4.0,414,POINT (-84.35493990000001 33.7824462),GA,Fulton,Atlanta,Virginia Highland,275890,2,0,0,0,1,0,0,0,0,0,breakfast_and_brunch,33.7824462,-84.3549399
238,Press and Grind,"['Coffee & Tea', 'Bakeries', 'Gluten-Free']","(33.781726900000002, -84.3543679)",30306.0,$,4.0,89,POINT (-84.3543679 33.7817269),GA,Dekalb,Atlanta,Virginia Highland,275890,1,0,0,1,0,1,0,0,0,0,bakeries,33.7817269,-84.3543679
239,8ARM,"['Cafes', 'American (New)', 'Breakfast & Brunch']","(33.7738023, -84.364226000000002)",30306.0,$$,3.5,131,POINT (-84.364226 33.7738023),GA,Dekalb,Atlanta,Virginia Highland,275890,2,0,0,1,1,0,0,0,0,0,breakfast_and_brunch,33.7738023,-84.364226
240,San Francisco Coffee Roasting Co,['Coffee & Tea'],"(33.787246699999997, -84.355491599999993)",30306.0,$,3.5,152,POINT (-84.35549159999999 33.7872467),GA,Dekalb,Atlanta,Virginia Highland,275890,1,0,1,1,0,0,0,0,0,0,strictly_coffee,33.7872467,-84.3554916
241,Callie's Hot Little Biscuit,"['Coffee & Tea', 'Bakeries', 'Sandwiches']","(33.782483003561701, -84.354483829093397)",30306.0,$,4.0,189,POINT (-84.3544838290934 33.7824830035617),GA,Dekalb,Atlanta,Virginia Highland,275890,1,0,0,1,0,1,0,0,0,0,bakeries,33.7824830035617,-84.3544838290934
242,Tipple & Rose Tea Parlor and Apothecary,"['Tea Rooms', 'Cafes', 'Breakfast & Brunch']","(33.776471299999997, -84.352614900000006)",30306.0,$$,3.5,116,POINT (-84.35261490000001 33.7764713),GA,Dekalb,Atlanta,Virginia Highland,275890,2,0,0,1,1,0,0,0,0,0,breakfast_and_brunch,33.7764713,-84.3526149
243,Cacao Atlanta Chocolate,"['Desserts', 'Chocolatiers & Shops']","(33.783180000000002, -84.354870000000005)",30306.0,$$$,3.0,84,POINT (-84.35487000000001 33.78318),GA,Dekalb,Atlanta,Virginia Highland,275890,3,0,0,0,0,0,0,0,0,0,other,33.78318,-84.35487
244,Java Jive Coffee House and Cafe,['Breakfast & Brunch'],"(33.774169899999997, -84.361488300000005)",30306.0,$,3.5,176,POINT (-84.3614883 33.7741699),GA,Dekalb,Atlanta,Virginia Highland,275890,1,0,0,0,1,0,0,0,0,0,breakfast_and_brunch,33.7741699,-84.3614883
245,Honey Bubble,"['Bubble Tea', 'Tea Rooms']","(33.773933399999997, -84.361167899999998)",30306.0,$,3.5,423,POINT (-84.3611679 33.7739334),GA,Dekalb,Atlanta,Virginia Highland,275890,1,0,0,0,0,0,0,0,0,0,other,33.7739334,-84.3611679
246,Tuscany at Your Table,"['Delis', 'Specialty Food', 'Italian']","(33.7832145, -84.354668799999999)",30306.0,$,5.0,14,POINT (-84.3546688 33.7832145),GA,Dekalb,Atlanta,Virginia Highland,275890,1,0,0,0,0,0,0,1,0,0,deli,33.7832145,-84.3546688
247,Murphy's,"['American (Traditional)', 'Breakfast & Brunch', 'Desserts']","(33.782089900000003, -84.354870000000005)",30306.0,$$,4.0,891,POINT (-84.35487000000001 33.7820899),GA,Dekalb,Atlanta,Virginia Highland,275890,2,0,0,0,1,0,0,0,0,0,breakfast_and_brunch,33.7820899,-84.35487
248,D B A Barbecue,"['Barbeque', 'Bars', 'Breakfast & Brunch']","(33.787197200000001, -84.355485099999996)",30306.0,$$,3.5,520,POINT (-84.3554851 33.7871972),GA,Dekalb,Atlanta,Virginia Highland,275890,2,0,0,0,1,0,0,0,0,0,breakfast_and_brunch,33.7871972,-84.3554851
249,Yogli Mogli,['Ice Cream & Frozen Yogurt'],"(33.7819, -84.354500000000002)",30306.0,$,4.0,65,POINT (-84.3545 33.7819),GA,Dekalb,Atlanta,Virginia Highland,275890,1,0,0,0,0,0,0,0,1,0,ice_cream_and_froyo,33.7819,-84.3545
250,Paolos Gelato Italiano,"['Ice Cream & Frozen Yogurt', 'Desserts', 'Gelato']","(33.782251600000002, -84.353484699999996)",30306.0,$,4.0,240,POINT (-84.3534847 33.7822516),GA,Dekalb,Atlanta,Virginia Highland,275890,1,0,0,0,0,0,0,0,1,0,ice_cream_and_froyo,33.7822516,-84.3534847
251,American Roadhouse,"['American (Traditional)', 'Breakfast & Brunch']","(33.777464817466303, -84.352759047242898)",30306.0,$$,3.5,177,POINT (-84.3527590472429 33.7774648174663),GA,Dekalb,Atlanta,Virginia Highland,275890,2,0,0,0,1,0,0,0,0,0,breakfast_and_brunch,33.7774648174663,-84.3527590472429
252,La Tavola Trattoria,"['Italian', 'Breakfast & Brunch']","(33.782446200000003, -84.354939900000005)",30306.0,$$,4.0,414,POINT (-84.35493990000001 33.7824462),GA,Dekalb,Atlanta,Virginia Highland,275890,2,0,0,0,1,0,0,0,0,0,breakfast_and_brunch,33.7824462,-84.3549399
253,SIP The Experience,"['Coffee & Tea', 'Breakfast & Brunch', 'Cafes']","(33.8227914, -84.370102000000003)",30324.0,$,4.0,230,POINT (-84.370102 33.8227914),GA,Fulton,Atlanta,Lindbergh,403406,1,0,0,1,1,0,0,0,0,0,breakfast_and_brunch,33.8227914,-84.370102
254,CEG Bakery,"['Bakeries', 'Desserts', 'Cupcakes']","(33.824860000000001, -84.3666506422758)",30324.0,$$,4.5,23,POINT (-84.3666506422758 33.82486),GA,Fulton,Atlanta,Lindbergh,403406,2,0,0,0,0,1,0,0,0,0,bakeries,33.82486,-84.3666506422758
255,Starbucks,['Coffee & Tea'],"(33.825613500914997, -84.365609545838396)",30324.0,$,3.5,44,POINT (-84.3656095458384 33.825613500915),GA,Fulton,Atlanta,Lindbergh,403406,1,1,1,1,0,0,0,0,0,0,chain,33.825613500915,-84.3656095458384
256,Starbucks,['Coffee & Tea'],"(33.823250000000002, -84.368539999999996)",30324.0,$$,4.5,2,POINT (-84.36854 33.82325),GA,Fulton,Atlanta,Lindbergh,403406,2,1,1,1,0,0,0,0,0,0,chain,33.82325,-84.36854
257,Dunkin' Donuts,"['Coffee & Tea', 'Donuts']","(33.822246117115803, -84.367709867010305)",30324.0,$,2.0,40,POINT (-84.3677098670103 33.8222461171158),GA,Fulton,Atlanta,Lindbergh,403406,1,1,0,1,0,0,0,0,0,0,chain,33.8222461171158,-84.3677098670103
258,Proposito,"['Food Trucks', 'Tacos']","(33.821439499999997, -84.367401200000003)",30324.0,$,5.0,25,POINT (-84.3674012 33.8214395),GA,Fulton,Atlanta,Lindbergh,403406,1,0,0,0,0,0,0,0,0,0,other,33.8214395,-84.3674012
259,Cheese Caked,['Patisserie/Cake Shop'],"(33.823491400000002, -84.364742500000006)",30324.0,$$,4.0,43,POINT (-84.36474250000001 33.8234914),GA,Fulton,Atlanta,Lindbergh,403406,2,0,0,0,0,0,0,0,0,0,other,33.8234914,-84.3647425
260,Good Food Truck,['Food Trucks'],"(33.820011138916001, -84.365036010742202)",30324.0,$,4.5,24,POINT (-84.3650360107422 33.820011138916),GA,Fulton,Atlanta,Lindbergh,403406,1,0,0,0,0,0,0,0,0,0,other,33.820011138916,-84.3650360107422
261,Kroger,['Grocery'],"(33.822526022325903, -84.366015425926804)",30324.0,$$,4.0,49,POINT (-84.3660154259268 33.8225260223259),GA,Fulton,Atlanta,Lindbergh,403406,2,0,0,0,0,0,0,0,0,0,other,33.8225260223259,-84.3660154259268
262,QuikTrip,"['Gas Stations', 'Convenience Stores']","(33.825369999999999, -84.36215)",30324.0,$,4.0,45,POINT (-84.36215 33.82537),GA,Fulton,Atlanta,Lindbergh,403406,1,0,0,0,0,0,0,0,0,0,other,33.82537,-84.36215
263,Muchacho,['Coffee & Tea'],"(33.746704899999997, -84.356899999999996)",30316.0,$$,4.0,59,POINT (-84.3569 33.7467049),GA,Fulton,Atlanta,Reynoldstown,269422,2,0,1,1,0,0,0,0,0,0,strictly_coffee,33.7467049,-84.3569
264,ParkGrounds,"['Coffee & Tea', 'Breakfast & Brunch']","(33.750079999999997, -84.354519999999994)",30316.0,$,4.0,228,POINT (-84.35451999999999 33.75008),GA,Fulton,Atlanta,Reynoldstown,269422,1,0,0,1,1,0,0,0,0,0,breakfast_and_brunch,33.75008,-84.35452
265,Muchacho,['Coffee & Tea'],"(33.746704899999997, -84.356899999999996)",30316.0,$$,4.0,59,POINT (-84.3569 33.7467049),GA,Dekalb,Atlanta,Reynoldstown,269422,2,0,1,1,0,0,0,0,0,0,strictly_coffee,33.7467049,-84.3569
266,ParkGrounds,"['Coffee & Tea', 'Breakfast & Brunch']","(33.750079999999997, -84.354519999999994)",30316.0,$,4.0,228,POINT (-84.35451999999999 33.75008),GA,Dekalb,Atlanta,Reynoldstown,269422,1,0,0,1,1,0,0,0,0,0,breakfast_and_brunch,33.75008,-84.35452
267,JavaVino,"['Coffee & Tea', 'Wine Bars']","(33.7701416015625, -84.352157592773395)",30307.0,$,4.0,169,POINT (-84.35215759277339 33.7701416015625),GA,Fulton,Atlanta,Poncey-Highland,276516,1,0,0,1,0,0,0,0,0,0,other,33.7701416015625,-84.3521575927734
268,San Francisco Coffee Roasting,['Coffee Roasteries'],"(33.773482899999998, -84.352624899999995)",30306.0,$,3.5,100,POINT (-84.3526249 33.7734829),GA,Fulton,Atlanta,Poncey-Highland,276516,1,0,1,1,0,0,0,0,0,0,strictly_coffee,33.7734829,-84.3526249
269,Freedom Farmer's Market,['Farmers Market'],"(33.7675506, -84.356857300000001)",30306.0,$$,4.5,15,POINT (-84.3568573 33.7675506),GA,Fulton,Atlanta,Poncey-Highland,276516,2,0,0,0,0,0,0,0,0,0,other,33.7675506,-84.3568573
270,New Realm Brewing,"['Breweries', 'American (New)']","(33.7690333817904, -84.361914828426293)",30306.0,$$,3.5,124,POINT (-84.36191482842629 33.7690333817904),GA,Fulton,Atlanta,Poncey-Highland,276516,2,0,0,0,0,0,0,0,0,0,other,33.7690333817904,-84.3619148284263
271,Manuel's Tavern,"['Desserts', 'Salad', 'Sandwiches']","(33.770820000000001, -84.3527299)",30307.0,$$,4.0,328,POINT (-84.3527299 33.77082),GA,Fulton,Atlanta,Poncey-Highland,276516,2,0,0,0,0,0,0,0,0,0,other,33.77082,-84.3527299
272,King of Pops,"['Ice Cream & Frozen Yogurt', 'Street Vendors']","(33.771059399999999, -84.352339200000003)",30306.0,$,4.5,287,POINT (-84.3523392 33.7710594),GA,Fulton,Atlanta,Poncey-Highland,276516,1,0,0,0,0,0,0,0,1,0,ice_cream_and_froyo,33.7710594,-84.3523392
273,Publix,['Grocery'],"(33.773071026089198, -84.3542830089023)",30306.0,$$,3.5,50,POINT (-84.3542830089023 33.7730710260892),GA,Fulton,Atlanta,Poncey-Highland,276516,2,1,0,0,0,0,0,0,0,0,chain,33.7730710260892,-84.3542830089023
274,Aurora Coffee,"['Coffee & Tea', 'Desserts']","(33.767002384712697, -84.349430557927207)",30307.0,$,4.0,129,POINT (-84.34943055792721 33.7670023847127),GA,Fulton,Atlanta,Inman Park,272817,1,0,0,1,0,0,0,0,0,0,other,33.7670023847127,-84.3494305579272
275,Proof Bakeshop,"['Coffee & Tea', 'Bakeries', 'Sandwiches']","(33.756954193115199, -84.353935241699205)",30307.0,$,4.0,118,POINT (-84.3539352416992 33.7569541931152),GA,Fulton,Atlanta,Inman Park,272817,1,0,0,1,0,1,0,0,0,0,bakeries,33.7569541931152,-84.3539352416992
276,Inman Perk,"['Coffee & Tea', 'Cafes']","(33.7624937485785, -84.359147112247499)",30307.0,$,3.5,298,POINT (-84.3591471122475 33.7624937485785),GA,Fulton,Atlanta,Inman Park,272817,1,0,1,1,0,0,0,0,0,0,strictly_coffee,33.7624937485785,-84.3591471122475
277,Bread & Butterfly,"['Cafes', 'French', 'Cocktail Bars']","(33.762423121281202, -84.358099736273303)",30307.0,$$,4.0,226,POINT (-84.3580997362733 33.7624231212812),GA,Fulton,Atlanta,Inman Park,272817,2,0,0,1,0,0,0,0,0,0,other,33.7624231212812,-84.3580997362733
278,Revolution Doughnuts,"['Donuts', 'Coffee & Tea']","(33.7546933, -84.363141499999998)",30307.0,$$,4.5,88,POINT (-84.3631415 33.7546933),GA,Fulton,Atlanta,Inman Park,272817,2,0,0,1,0,0,0,0,0,0,other,33.7546933,-84.3631415
279,Voga Italian Gelato,"['Coffee & Tea', 'Gelato', 'Ice Cream & Frozen Yogurt']","(33.762311825362602, -84.358756217790997)",30307.0,$$,5.0,60,POINT (-84.358756217791 33.7623118253626),GA,Fulton,Atlanta,Inman Park,272817,2,0,0,1,0,0,0,0,1,0,ice_cream_and_froyo,33.7623118253626,-84.358756217791
280,Java Lords,"['Coffee & Tea', 'Bars']","(33.763879300570501, -84.351002123556498)",30307.0,$,3.5,73,POINT (-84.3510021235565 33.7638793005705),GA,Fulton,Atlanta,Inman Park,272817,1,0,0,1,0,0,0,0,0,0,other,33.7638793005705,-84.3510021235565
281,The Little Tart Bakeshop,"['Desserts', 'Breakfast & Brunch', 'Bakeries']","(33.756794586979296, -84.364157966934201)",30307.0,$,4.0,86,POINT (-84.3641579669342 33.7567945869793),GA,Fulton,Atlanta,Inman Park,272817,1,0,0,0,1,1,0,0,0,0,bakeries,33.7567945869793,-84.3641579669342
282,Julianna's Crepes,"['Creperies', 'Desserts', 'Breakfast & Brunch']","(33.758077800000002, -84.362103700000006)",30307.0,$,4.5,208,POINT (-84.36210370000001 33.7580778),GA,Fulton,Atlanta,Inman Park,272817,1,0,0,0,1,0,0,0,0,0,breakfast_and_brunch,33.7580778,-84.3621037
283,Starbucks,['Coffee & Tea'],"(33.76806640625, -84.349418640136705)",30307.0,$$,3.0,51,POINT (-84.3494186401367 33.76806640625),GA,Fulton,Atlanta,Inman Park,272817,2,1,1,1,0,0,0,0,0,0,chain,33.76806640625,-84.3494186401367
284,Xocolatl Small Batch Chocolate,['Chocolatiers & Shops'],"(33.75658, -84.364180000000005)",30307.0,$$$,4.5,37,POINT (-84.36418 33.75658),GA,Fulton,Atlanta,Inman Park,272817,3,0,0,0,0,0,0,0,0,0,other,33.75658,-84.36418
285,Village Coffee House,"['Coffee & Tea', 'Sandwiches', 'Ice Cream & Frozen Yogurt']","(33.765683702329902, -84.349370101852401)",30307.0,$,2.5,13,POINT (-84.3493701018524 33.7656837023299),GA,Fulton,Atlanta,Inman Park,272817,1,0,0,1,0,0,0,0,1,0,ice_cream_and_froyo,33.7656837023299,-84.3493701018524
286,Folk Art,"['American (Traditional)', 'Breakfast & Brunch', 'Diners']","(33.7666898832952, -84.352931230059397)",30307.0,$$,4.0,632,POINT (-84.3529312300594 33.7666898832952),GA,Fulton,Atlanta,Inman Park,272817,2,0,0,0,1,0,1,0,0,0,diner,33.7666898832952,-84.3529312300594
287,Twigg & co,['Chocolatiers & Shops'],"(33.761980000000001, -84.358540000000005)",30307.0,$,4.0,9,POINT (-84.35854 33.76198),GA,Fulton,Atlanta,Inman Park,272817,1,0,0,0,0,0,0,0,0,0,other,33.76198,-84.35854
288,BeetleCat,"['Seafood', 'Bars', 'Desserts']","(33.762661791236802, -84.358196575393706)",30307.0,$$,4.0,412,POINT (-84.35819657539371 33.7626617912368),GA,Fulton,Atlanta,Inman Park,272817,2,0,0,0,0,0,0,0,0,0,other,33.7626617912368,-84.3581965753937
289,Wrecking Bar Brewpub,['Brewpubs'],"(33.762272000000003, -84.349723999999995)",30307.0,$$,4.0,603,POINT (-84.34972399999999 33.762272),GA,Fulton,Atlanta,Inman Park,272817,2,0,0,0,0,0,0,0,0,0,other,33.762272,-84.349724
290,Nature's Garden Express,"['Juice Bars & Smoothies', 'Fruits & Veggies']","(33.756930290111903, -84.363596126300294)",30307.0,$$$,3.5,7,POINT (-84.36359612630029 33.7569302901119),GA,Fulton,Atlanta,Inman Park,272817,3,0,0,0,0,0,0,0,0,1,juice_and_smoothie,33.7569302901119,-84.3635961263003
291,One Eared Stag,"['American (New)', 'Breakfast & Brunch', 'Cocktail Bars']","(33.756794666028902, -84.354792087828997)",30307.0,$$,3.5,420,POINT (-84.354792087829 33.7567946660289),GA,Fulton,Atlanta,Inman Park,272817,2,0,0,0,1,0,0,0,0,0,breakfast_and_brunch,33.7567946660289,-84.354792087829
292,Hop City,"['Beer, Wine & Spirits', 'Beer Bar']","(33.756883786875299, -84.3639648478851)",30307.0,$$,4.0,74,POINT (-84.3639648478851 33.7568837868753),GA,Fulton,Atlanta,Inman Park,272817,2,0,0,0,0,0,0,0,0,0,other,33.7568837868753,-84.3639648478851
293,Savi Urban Market,"['Grocery', 'Health Markets', 'Beer, Wine & Spirits']","(33.762270999999998, -84.357686999999999)",30307.0,$$,4.0,85,POINT (-84.357687 33.762271),GA,Fulton,Atlanta,Inman Park,272817,2,0,0,0,0,0,0,0,0,0,other,33.762271,-84.357687
294,King of Pops,['Ice Cream & Frozen Yogurt'],"(33.763730000000002, -84.358630000000005)",30307.0,$,4.5,57,POINT (-84.35863000000001 33.76373),GA,Fulton,Atlanta,Inman Park,272817,1,0,0,0,0,0,0,0,1,0,ice_cream_and_froyo,33.76373,-84.35863
295,The Albert,"['Bars', 'American (Traditional)', 'Breakfast & Brunch']","(33.761946497105903, -84.357565793764294)",30307.0,$$,3.5,256,POINT (-84.35756579376429 33.7619464971059),GA,Fulton,Atlanta,Inman Park,272817,2,0,0,0,1,0,0,0,0,0,breakfast_and_brunch,33.7619464971059,-84.3575657937643
296,Little Five Points Package Store,"['Beer, Wine & Spirits']","(33.766545299999997, -84.349215799999996)",30307.0,$$,3.0,10,POINT (-84.3492158 33.7665453),GA,Fulton,Atlanta,Inman Park,272817,2,0,0,0,0,0,0,0,0,0,other,33.7665453,-84.3492158
297,Kale Me Crazy,['Juice Bars & Smoothies'],"(33.762806406450999, -84.358540557378205)",30307.0,$$,4.0,173,POINT (-84.35854055737821 33.762806406451),GA,Fulton,Atlanta,Inman Park,272817,2,1,0,0,0,0,0,0,0,1,chain,33.762806406451,-84.3585405573782
298,Jeni's Splendid Ice Creams,['Ice Cream & Frozen Yogurt'],"(33.756454862306903, -84.363925876057493)",30307.0,$,4.5,181,POINT (-84.36392587605749 33.7564548623069),GA,Fulton,Atlanta,Inman Park,272817,1,0,0,0,0,0,0,0,1,0,ice_cream_and_froyo,33.7564548623069,-84.3639258760575
299,Blue Donkey Coffee,['Coffee & Tea'],"(33.7742315458026, -84.398785053442396)",30313.0,$,4.5,14,POINT (-84.3987850534424 33.7742315458026),GA,Fulton,Atlanta,Georgia Tech,399508,1,0,1,1,0,0,0,0,0,0,strictly_coffee,33.7742315458026,-84.3987850534424
300,Java World Coffee Cart,"['Coffee & Tea', 'Breakfast & Brunch', 'Bagels']","(33.777448, -84.397369999999995)",30332.0,$,4.5,9,POINT (-84.39737 33.777448),GA,Fulton,Atlanta,Georgia Tech,399508,1,0,0,1,1,0,0,0,0,0,breakfast_and_brunch,33.777448,-84.39737
301,Sublime Doughnuts,['Donuts'],"(33.78154, -84.40513)",30318.0,$,4.0,942,POINT (-84.40513 33.78154),GA,Fulton,Atlanta,Georgia Tech,399508,1,0,0,0,0,0,0,0,0,0,other,33.78154,-84.40513
302,Starbucks,['Coffee & Tea'],"(33.7741630057631, -84.396510196089594)",30332.0,$$,2.5,20,POINT (-84.39651019608959 33.7741630057631),GA,Fulton,Atlanta,Georgia Tech,399508,2,1,1,1,0,0,0,0,0,0,chain,33.7741630057631,-84.3965101960896
303,Mae's Bakery,"['Bakeries', 'Coffee & Tea', 'Custom Cakes']","(33.8304815465522, -84.356360200404893)",30324.0,$$,4.0,97,POINT (-84.35636020040489 33.8304815465522),GA,Fulton,Atlanta,Pine Hills,403405,2,0,0,1,0,1,0,0,0,0,bakeries,33.8304815465522,-84.3563602004049
304,Cafe + Velo,"['Coffee & Tea', 'Breakfast & Brunch', 'Bike Rentals']","(33.7543109804392, -84.3750140815973)",30312.0,$,4.5,76,POINT (-84.3750140815973 33.7543109804392),GA,Fulton,Atlanta,Sweet Auburn,276600,1,0,0,1,1,0,0,0,0,0,breakfast_and_brunch,33.7543109804392,-84.3750140815973
305,Java Saga,"['Coffee & Tea', 'Food Trucks']","(33.749722400000003, -84.380983200000003)",30312.0,$$,4.5,10,POINT (-84.3809832 33.7497224),GA,Fulton,Atlanta,Sweet Auburn,276600,2,0,0,1,0,0,0,0,0,0,other,33.7497224,-84.3809832
306,Café 458 Brunch,"['Breakfast & Brunch', 'Cafes', 'Coffee & Tea']","(33.754530000000003, -84.372600000000006)",30312.0,$,4.5,131,POINT (-84.37260000000001 33.75453),GA,Fulton,Atlanta,Sweet Auburn,276600,1,0,0,1,1,0,0,0,0,0,breakfast_and_brunch,33.75453,-84.3726
307,Café Circa,"['Desserts', 'Southern', 'Dinner Theater']","(33.754519999999999, -84.372389999999996)",30312.0,$$,3.0,245,POINT (-84.37239 33.75452),GA,Fulton,Atlanta,Sweet Auburn,276600,2,0,0,0,0,0,0,0,0,0,other,33.75452,-84.37239
308,Java Cats Cafe,"['Themed Cafes', 'Coffee & Tea', 'Pet Adoption']","(33.746560000000002, -84.374210000000005)",30312.0,$,4.5,79,POINT (-84.37421000000001 33.74656),GA,Fulton,Atlanta,Grant Park,269330,1,0,0,1,0,0,0,0,0,0,other,33.74656,-84.37421
309,Grant Park Coffeehouse,"['Coffee & Tea', 'Bakeries', 'Sandwiches']","(33.733802795410199, -84.373855590820298)",30315.0,$,4.0,142,POINT (-84.3738555908203 33.7338027954102),GA,Fulton,Atlanta,Grant Park,269330,1,0,0,1,0,1,0,0,0,0,bakeries,33.7338027954102,-84.3738555908203
310,Revelator Grant Park,['Coffee & Tea'],"(33.746048142059202, -84.372807204152195)",30312.0,$,3.5,289,POINT (-84.3728072041522 33.7460481420592),GA,Fulton,Atlanta,Grant Park,269330,1,0,1,1,0,0,0,0,0,0,strictly_coffee,33.7460481420592,-84.3728072041522
311,Mediterranea,"['Mediterranean', 'Bakeries', 'Breakfast & Brunch']","(33.731562570081699, -84.376838546979201)",30315.0,$$,4.5,118,POINT (-84.3768385469792 33.7315625700817),GA,Fulton,Atlanta,Grant Park,269330,2,0,0,0,1,1,0,0,0,0,bakeries,33.7315625700817,-84.3768385469792
312,The Little Tart Bakeshop,['Bakeries'],"(33.746150999999998, -84.372962999999999)",30312.0,$$,4.0,92,POINT (-84.372963 33.746151),GA,Fulton,Atlanta,Grant Park,269330,2,0,0,0,0,1,0,0,0,0,bakeries,33.746151,-84.372963
313,Starbucks,['Coffee & Tea'],"(33.742123999999997, -84.360634000000005)",30316.0,$$,2.5,6,POINT (-84.360634 33.742124),GA,Fulton,Atlanta,Grant Park,269330,2,1,1,1,0,0,0,0,0,0,chain,33.742124,-84.360634
314,The Cake Hag Cake Shop,"['Bakeries', 'Custom Cakes']","(33.741522000000003, -84.358399000000006)",30316.0,$$,4.0,28,POINT (-84.35839900000001 33.741522),GA,Fulton,Atlanta,Grant Park,269330,2,0,0,0,0,1,0,0,0,0,bakeries,33.741522,-84.358399
315,My Friend's Growler Shop,"['Beer, Wine & Spirits']","(33.7465507, -84.374279700000002)",30312.0,$$,5.0,35,POINT (-84.3742797 33.7465507),GA,Fulton,Atlanta,Grant Park,269330,2,0,0,0,0,0,0,0,0,0,other,33.7465507,-84.3742797
316,Ziba's Bistro,"['Tapas/Small Plates', 'Sandwiches', 'Beer, Wine & Spirits']","(33.7391154899708, -84.368004798889203)",30312.0,$$,4.0,171,POINT (-84.3680047988892 33.7391154899708),GA,Fulton,Atlanta,Grant Park,269330,2,0,0,0,0,0,0,0,0,0,other,33.7391154899708,-84.3680047988892
317,Dakota Blue,"['American (Traditional)', 'Breakfast & Brunch', 'Mexican']","(33.742085594828097, -84.373345816472096)",30312.0,$,3.5,183,POINT (-84.3733458164721 33.7420855948281),GA,Fulton,Atlanta,Grant Park,269330,1,0,0,0,1,0,0,0,0,0,breakfast_and_brunch,33.7420855948281,-84.3733458164721
318,Grant Park Market,['Grocery'],"(33.746099999999998, -84.370689999999996)",30312.0,$$,4.0,29,POINT (-84.37069 33.7461),GA,Fulton,Atlanta,Grant Park,269330,2,0,0,0,0,0,0,0,0,0,other,33.7461,-84.37069
319,Ria's Bluebird,"['Southern', 'Breakfast & Brunch', 'Sandwiches']","(33.746570599999998, -84.373642000000004)",30312.0,$$,4.0,948,POINT (-84.373642 33.7465706),GA,Fulton,Atlanta,Grant Park,269330,2,0,0,0,1,0,0,0,0,0,breakfast_and_brunch,33.7465706,-84.373642
320,Grant Park Farmers Market,['Farmers Market'],"(33.7388389126913, -84.373476505279498)",30312.0,$$,4.5,57,POINT (-84.3734765052795 33.7388389126913),GA,Fulton,Atlanta,Grant Park,269330,2,0,0,0,0,0,0,0,0,0,other,33.7388389126913,-84.3734765052795
321,Kroger,['Grocery'],"(33.740563000000002, -84.361913000000001)",30312.0,$$,3.5,70,POINT (-84.361913 33.740563),GA,Fulton,Atlanta,Grant Park,269330,2,0,0,0,0,0,0,0,0,0,other,33.740563,-84.361913
322,Counter Culture Coffee,['Coffee & Tea'],"(33.783107399999999, -84.417226099999993)",30318.0,$$,4.0,4,POINT (-84.41722609999999 33.7831074),GA,Fulton,Atlanta,English Avenue,269315,2,0,1,1,0,0,0,0,0,0,strictly_coffee,33.7831074,-84.4172261
323,Brother Moto,"['Motorcycle Gear', 'Coffee & Tea', 'Motorcycle Repair']","(33.746794899999998, -84.365649899999994)",30312.0,$,4.5,20,POINT (-84.36564989999999 33.7467949),GA,Fulton,Atlanta,Cabbagetown,127516,1,0,0,1,0,0,0,0,0,0,other,33.7467949,-84.3656499
324,Sweet Cheats,"['Desserts', 'Cafes']","(33.750430000000001, -84.36439)",30316.0,$,4.0,181,POINT (-84.36439 33.75043),GA,Fulton,Atlanta,Cabbagetown,127516,1,0,0,1,0,0,0,0,0,0,other,33.75043,-84.36439
325,Petit Chou,"['Breakfast & Brunch', 'French', 'Cafes']","(33.746844034098103, -84.365829758286907)",30312.0,$$,4.5,99,POINT (-84.36582975828691 33.7468440340981),GA,Fulton,Atlanta,Cabbagetown,127516,2,0,0,1,1,0,0,0,0,0,breakfast_and_brunch,33.7468440340981,-84.3658297582869
326,Carroll Street Café,"['Bars', 'Breakfast & Brunch', 'American (New)']","(33.748981499999999, -84.367851299999998)",30312.0,$$,4.0,415,POINT (-84.3678513 33.7489815),GA,Fulton,Atlanta,Cabbagetown,127516,2,0,0,0,1,0,0,0,0,0,breakfast_and_brunch,33.7489815,-84.3678513
327,Little's Food Store and Grill,"['Grocery', 'Beer, Wine & Spirits', 'Burgers']","(33.749229999999997, -84.367840000000001)",30312.0,$,4.5,124,POINT (-84.36784 33.74923),GA,Fulton,Atlanta,Cabbagetown,127516,1,0,0,0,0,0,0,0,0,0,other,33.74923,-84.36784
328,Drip,['Coffee & Tea'],"(33.740702947406298, -84.357232269407803)",30316.0,$,4.0,80,POINT (-84.3572322694078 33.7407029474063),GA,Dekalb,Atlanta,Ormewood Park,274926,1,0,1,1,0,0,0,0,0,0,strictly_coffee,33.7407029474063,-84.3572322694078
329,Joseph & Co,"['Coffee & Tea', 'Home Decor', 'Caterers']","(33.740409999999997, -84.357839999999996)",30316.0,$$,4.5,9,POINT (-84.35784 33.74041),GA,Dekalb,Atlanta,Ormewood Park,274926,2,0,0,1,0,0,0,0,0,0,other,33.74041,-84.35784
330,Jayida Ché Tea Spot,['Coffee & Tea'],"(33.733953197460401, -84.349395315287694)",30316.0,$$,5.0,14,POINT (-84.34939531528769 33.7339531974604),GA,Dekalb,Atlanta,Ormewood Park,274926,2,0,1,1,0,0,0,0,0,0,strictly_coffee,33.7339531974604,-84.3493953152877
331,Endulge Cupcake Boutique,['Cupcakes'],"(33.733913399999999, -84.349472000000006)",30316.0,$,4.0,111,POINT (-84.34947200000001 33.7339134),GA,Dekalb,Atlanta,Ormewood Park,274926,1,0,0,0,0,0,0,0,0,0,other,33.7339134,-84.349472
332,Festivals Jerk Chicken Grill,"['Caribbean', 'Desserts', 'Salad']","(33.740402699999997, -84.357831099999999)",30316.0,$,4.5,85,POINT (-84.3578311 33.7404027),GA,Dekalb,Atlanta,Ormewood Park,274926,1,0,0,0,0,0,0,0,0,0,other,33.7404027,-84.3578311
333,Morelli's Gourmet Ice Cream & Desserts,"['Ice Cream & Frozen Yogurt', 'Bakeries']","(33.733913899999997, -84.349474900000004)",30316.0,$,4.5,335,POINT (-84.3494749 33.7339139),GA,Dekalb,Atlanta,Ormewood Park,274926,1,0,0,0,0,1,0,0,1,0,ice_cream_and_froyo,33.7339139,-84.3494749
334,McDonald's,"['Fast Food', 'Burgers', 'Coffee & Tea']","(33.741824338847699, -84.349622279405594)",30316.0,$,1.5,49,POINT (-84.34962227940559 33.7418243388477),GA,Dekalb,Atlanta,Ormewood Park,274926,1,1,0,1,0,0,0,0,0,0,chain,33.7418243388477,-84.3496222794056
335,Vickery's Bar & Grill - Glenwood Park,"['American (Traditional)', 'Bars', 'Breakfast & Brunch']","(33.740270000000002, -84.357339999999994)",30316.0,$$,4.0,131,POINT (-84.35733999999999 33.74027),GA,Dekalb,Atlanta,Ormewood Park,274926,2,0,0,0,1,0,0,0,0,0,breakfast_and_brunch,33.74027,-84.35734
336,Drip,['Coffee & Tea'],"(33.740702947406298, -84.357232269407803)",30316.0,$,4.0,80,POINT (-84.3572322694078 33.7407029474063),GA,Fulton,Atlanta,Ormewood Park,274926,1,0,1,1,0,0,0,0,0,0,strictly_coffee,33.7407029474063,-84.3572322694078
337,Joseph & Co,"['Coffee & Tea', 'Home Decor', 'Caterers']","(33.740409999999997, -84.357839999999996)",30316.0,$$,4.5,9,POINT (-84.35784 33.74041),GA,Fulton,Atlanta,Ormewood Park,274926,2,0,0,1,0,0,0,0,0,0,other,33.74041,-84.35784
338,Jayida Ché Tea Spot,['Coffee & Tea'],"(33.733953197460401, -84.349395315287694)",30316.0,$$,5.0,14,POINT (-84.34939531528769 33.7339531974604),GA,Fulton,Atlanta,Ormewood Park,274926,2,0,1,1,0,0,0,0,0,0,strictly_coffee,33.7339531974604,-84.3493953152877
339,Endulge Cupcake Boutique,['Cupcakes'],"(33.733913399999999, -84.349472000000006)",30316.0,$,4.0,111,POINT (-84.34947200000001 33.7339134),GA,Fulton,Atlanta,Ormewood Park,274926,1,0,0,0,0,0,0,0,0,0,other,33.7339134,-84.349472
340,Festivals Jerk Chicken Grill,"['Caribbean', 'Desserts', 'Salad']","(33.740402699999997, -84.357831099999999)",30316.0,$,4.5,85,POINT (-84.3578311 33.7404027),GA,Fulton,Atlanta,Ormewood Park,274926,1,0,0,0,0,0,0,0,0,0,other,33.7404027,-84.3578311
341,Morelli's Gourmet Ice Cream & Desserts,"['Ice Cream & Frozen Yogurt', 'Bakeries']","(33.733913899999997, -84.349474900000004)",30316.0,$,4.5,335,POINT (-84.3494749 33.7339139),GA,Fulton,Atlanta,Ormewood Park,274926,1,0,0,0,0,1,0,0,1,0,ice_cream_and_froyo,33.7339139,-84.3494749
342,McDonald's,"['Fast Food', 'Burgers', 'Coffee & Tea']","(33.741824338847699, -84.349622279405594)",30316.0,$,1.5,49,POINT (-84.34962227940559 33.7418243388477),GA,Fulton,Atlanta,Ormewood Park,274926,1,1,0,1,0,0,0,0,0,0,chain,33.7418243388477,-84.3496222794056
343,Vickery's Bar & Grill - Glenwood Park,"['American (Traditional)', 'Bars', 'Breakfast & Brunch']","(33.740270000000002, -84.357339999999994)",30316.0,$$,4.0,131,POINT (-84.35733999999999 33.74027),GA,Fulton,Atlanta,Ormewood Park,274926,2,0,0,0,1,0,0,0,0,0,breakfast_and_brunch,33.74027,-84.35734
344,My Coffee Shop @ Eastlake,"['Breakfast & Brunch', 'Coffee & Tea', 'American (Traditional)']","(33.747352100000001, -84.305958599999997)",30317.0,$,4.5,108,POINT (-84.3059586 33.7473521),GA,Dekalb,Atlanta,East Lake,128381,1,0,0,1,1,0,0,0,0,0,breakfast_and_brunch,33.7473521,-84.3059586
345,ADios Cafe,"['Coffee & Tea', 'Breakfast & Brunch', 'Desserts']","(33.7498012, -84.400936099999996)",30313.0,$$,4.5,218,POINT (-84.4009361 33.7498012),GA,Fulton,Atlanta,Castleberry Hill,269293,2,0,0,1,1,0,0,0,0,0,breakfast_and_brunch,33.7498012,-84.4009361
346,Coffee Loft,['Themed Cafes'],"(33.745879000000002, -84.403175000000005)",30313.0,$,4.5,7,POINT (-84.403175 33.745879),GA,Fulton,Atlanta,Castleberry Hill,269293,1,0,0,0,0,0,0,0,0,0,other,33.745879,-84.403175
347,The Brunch Cabana,['Breakfast & Brunch'],"(33.747860000000003, -84.401730000000001)",30313.0,$$,4.0,40,POINT (-84.40173 33.74786),GA,Fulton,Atlanta,Castleberry Hill,269293,2,0,0,0,1,0,0,0,0,0,breakfast_and_brunch,33.74786,-84.40173
348,Indulge Gourmet Popcorn,['Popcorn Shops'],"(33.749716499999998, -84.399230599999996)",30313.0,$,4.5,16,POINT (-84.3992306 33.7497165),GA,Fulton,Atlanta,Castleberry Hill,269293,1,0,0,0,0,0,0,0,0,0,other,33.7497165,-84.3992306
349,Community Grounds,"['Coffee & Tea', 'Breakfast & Brunch']","(33.719275000000003, -84.385385999999997)",30315.0,$,4.5,23,POINT (-84.385386 33.719275),GA,Fulton,Atlanta,South Atlanta,269432,1,0,0,1,1,0,0,0,0,0,breakfast_and_brunch,33.719275,-84.385386
350,Weekday Cafe,"['Breakfast & Brunch', 'Coffee & Tea', 'Sandwiches']","(33.712332397699399, -84.383141845464706)",30303.0,$,4.0,15,POINT (-84.38314184546471 33.7123323976994),GA,Fulton,Atlanta,South Atlanta,269432,1,0,0,1,1,0,0,0,0,0,breakfast_and_brunch,33.7123323976994,-84.3831418454647
351,Carver Neighborhood Market,['Grocery'],"(33.719066455032298, -84.385157618400697)",30315.0,$,4.5,8,POINT (-84.3851576184007 33.7190664550323),GA,Fulton,Atlanta,South Atlanta,269432,1,0,0,0,0,0,0,0,0,0,other,33.7190664550323,-84.3851576184007
352,Embilta,"['Coffee & Tea', 'Ethiopian']","(33.812778000000002, -84.354727999999994)",30324.0,$,4.5,2,POINT (-84.35472799999999 33.812778),GA,Fulton,Atlanta,Lindridge - Martin Manor,403426,1,0,0,1,0,0,0,0,0,0,other,33.812778,-84.354728
353,Bella's Best Organic Gourmet,"['Bakeries', 'Cafes']","(33.8094267680816, -84.362323366483807)",30324.0,$,4.5,18,POINT (-84.36232336648381 33.8094267680816),GA,Fulton,Atlanta,Lindridge - Martin Manor,403426,1,0,0,1,0,1,0,0,0,0,bakeries,33.8094267680816,-84.3623233664838
354,International Bakery,['Bakeries'],"(33.813130000000001, -84.353319999999997)",30324.0,$,4.0,79,POINT (-84.35332 33.81313),GA,Fulton,Atlanta,Lindridge - Martin Manor,403426,1,0,0,0,0,1,0,0,0,0,bakeries,33.81313,-84.35332
355,McDonald's,"['Fast Food', 'Burgers', 'Coffee & Tea']","(33.819904745957501, -84.351839125156403)",30324.0,$,2.5,39,POINT (-84.3518391251564 33.8199047459575),GA,Fulton,Atlanta,Lindridge - Martin Manor,403426,1,1,0,1,0,0,0,0,0,0,chain,33.8199047459575,-84.3518391251564
356,The Original Pancake House,['Breakfast & Brunch'],"(33.818208748903999, -84.350188593876993)",30324.0,$$,3.5,328,POINT (-84.35018859387699 33.818208748904),GA,Fulton,Atlanta,Lindridge - Martin Manor,403426,2,0,0,0,1,0,0,0,0,0,breakfast_and_brunch,33.818208748904,-84.350188593877
357,Publix,['Grocery'],"(33.818542999999998, -84.349063999999998)",30324.0,$$,3.0,36,POINT (-84.349064 33.818543),GA,Fulton,Atlanta,Lindridge - Martin Manor,403426,2,1,0,0,0,0,0,0,0,0,chain,33.818543,-84.349064
358,Firelight Coffee Roasters,"['Coffee Roasteries', 'Wholesalers']","(33.78454, -84.421589999999995)",30318.0,$,4.5,2,POINT (-84.42158999999999 33.78454),GA,Fulton,Atlanta,Knight Park - Howell Station,403403,1,0,0,1,0,0,0,0,0,0,other,33.78454,-84.42159
359,Caribou Coffee,['Coffee & Tea'],"(33.844050000000003, -84.370009899999999)",30305.0,$,3.5,105,POINT (-84.3700099 33.84405),GA,Fulton,Atlanta,Peachtree Park,269408,1,1,1,1,0,0,0,0,0,0,chain,33.84405,-84.3700099
360,Southern Art,"['Southern', 'Breakfast & Brunch']","(33.845653499999997, -84.368328899999995)",30326.0,$$$,3.5,350,POINT (-84.36832889999999 33.8456535),GA,Fulton,Atlanta,Peachtree Park,269408,3,0,0,0,1,0,0,0,0,0,breakfast_and_brunch,33.8456535,-84.3683289
361,Cafe Benz,['Cafes'],"(33.830553115511897, -84.366809874772997)",30305.0,$,3.0,1,POINT (-84.366809874773 33.8305531155119),GA,Fulton,Atlanta,Peachtree Park,269408,1,0,1,1,0,0,0,0,0,0,strictly_coffee,33.8305531155119,-84.366809874773
362,Buckhead Diner,"['American (Traditional)', 'Breakfast & Brunch', 'Southern']","(33.839350000000003, -84.368729999999999)",30305.0,$$,3.5,537,POINT (-84.36873 33.83935),GA,Fulton,Atlanta,Peachtree Park,269408,2,0,0,0,1,0,0,0,0,0,breakfast_and_brunch,33.83935,-84.36873
363,The Mourning Dove Cafe,['Coffee & Tea'],"(33.838560000000001, -84.380129999999994)",30305.0,$$,3.5,18,POINT (-84.38012999999999 33.83856),GA,Fulton,Atlanta,Buckhead Village,269278,2,0,1,1,0,0,0,0,0,0,strictly_coffee,33.83856,-84.38013
364,Kale Me Crazy,"['Juice Bars & Smoothies', 'Salad', 'Coffee & Tea']","(33.840504793584799, -84.375686442006099)",30305.0,$$,3.5,35,POINT (-84.3756864420061 33.8405047935848),GA,Fulton,Atlanta,Buckhead Village,269278,2,1,0,1,0,0,0,0,0,1,chain,33.8405047935848,-84.3756864420061
365,Georgetown Cupcake,"['Cupcakes', 'Bakeries']","(33.839026500000003, -84.378621699999997)",30305.0,$,4.0,146,POINT (-84.3786217 33.8390265),GA,Fulton,Atlanta,Buckhead Village,269278,1,0,0,0,0,1,0,0,0,0,bakeries,33.8390265,-84.3786217
366,Amorino Gelato,"['Gelato', 'Desserts', 'Macarons']","(33.837649900000002, -84.380350000000007)",30305.0,$$$,4.5,22,POINT (-84.38035000000001 33.8376499),GA,Fulton,Atlanta,Buckhead Village,269278,3,0,0,0,0,0,0,0,0,0,other,33.8376499,-84.38035
367,Nifty Neighbor,['Convenience Stores'],"(33.837235, -84.378523000000001)",30305.0,$,4.5,6,POINT (-84.378523 33.837235),GA,Fulton,Atlanta,Buckhead Village,269278,1,0,0,0,0,0,0,0,0,0,other,33.837235,-84.378523
368,Le Bilboquet,"['French', 'Breakfast & Brunch', 'Wine Bars']","(33.837727999999998, -84.380302)",30305.0,$$$,3.5,167,POINT (-84.380302 33.837728),GA,Fulton,Atlanta,Buckhead Village,269278,3,0,0,0,1,0,0,0,0,0,breakfast_and_brunch,33.837728,-84.380302
369,Southern Baked Pie Company,"['Desserts', 'Bakeries']","(33.840217299999999, -84.377392200000003)",30305.0,$$,4.5,15,POINT (-84.3773922 33.8402173),GA,Fulton,Atlanta,Buckhead Village,269278,2,0,0,0,0,1,0,0,0,0,bakeries,33.8402173,-84.3773922
370,Cafe At Pharr,"['Cafes', 'Salad', 'Sandwiches']","(33.840185099999999, -84.3777963)",30305.0,$,4.0,77,POINT (-84.3777963 33.8401851),GA,Fulton,Atlanta,Buckhead Village,269278,1,0,0,1,0,0,0,0,0,0,other,33.8401851,-84.3777963
371,Buckhead Bread Company,['Bakeries'],"(33.8391723632812, -84.369476318359403)",30305.0,$$,3.0,52,POINT (-84.3694763183594 33.8391723632812),GA,Fulton,Atlanta,Buckhead Village,269278,2,0,0,0,0,1,0,0,0,0,bakeries,33.8391723632812,-84.3694763183594
372,Taverna Buckhead,"['Italian', 'Pizza', 'Breakfast & Brunch']","(33.838479999999997, -84.378540000000001)",30305.0,$$,3.5,91,POINT (-84.37854 33.83848),GA,Fulton,Atlanta,Buckhead Village,269278,2,0,0,0,1,0,0,0,0,0,breakfast_and_brunch,33.83848,-84.37854
373,Corner Cafe,"['Bakeries', 'Breakfast & Brunch']","(33.8391723632812, -84.369476318359403)",30305.0,$$,3.0,158,POINT (-84.3694763183594 33.8391723632812),GA,Fulton,Atlanta,Buckhead Village,269278,2,0,0,0,1,1,0,0,0,0,bakeries,33.8391723632812,-84.3694763183594
374,Trader Joe's,['Grocery'],"(33.840929899999999, -84.374984900000001)",30305.0,$$,4.5,128,POINT (-84.3749849 33.8409299),GA,Fulton,Atlanta,Buckhead Village,269278,2,0,0,0,0,0,0,0,0,0,other,33.8409299,-84.3749849
375,Shake Shack,"['Burgers', 'Ice Cream & Frozen Yogurt', 'American (Traditional)']","(33.8377650451961, -84.380781876629598)",30305.0,$$,3.5,546,POINT (-84.3807818766296 33.8377650451961),GA,Fulton,Atlanta,Buckhead Village,269278,2,0,0,0,0,0,0,0,1,0,ice_cream_and_froyo,33.8377650451961,-84.3807818766296
376,640 West Atl,"['Venues & Event Spaces', 'Cafes', 'Coffee & Tea']","(33.737560000000002, -84.415400000000005)",30310.0,$,4.0,13,POINT (-84.41540000000001 33.73756),GA,Fulton,Atlanta,West End,132606,1,0,0,1,0,0,0,0,0,0,other,33.73756,-84.4154
377,Vegan Dream Doughnuts,"['Donuts', 'Coffee & Tea', 'Vegan']","(33.739249999999998, -84.413719999999998)",30310.0,$$,4.0,36,POINT (-84.41372 33.73925),GA,Fulton,Atlanta,West End,132606,2,0,0,1,0,0,0,0,0,0,other,33.73925,-84.41372
378,Monday Night Brewing - Garage,"['Breweries', 'Venues & Event Spaces']","(33.7290043, -84.416251200000005)",30310.0,$,4.5,26,POINT (-84.4162512 33.7290043),GA,Fulton,Atlanta,West End,132606,1,0,0,0,0,0,0,0,0,0,other,33.7290043,-84.4162512
379,McDonald's,"['Coffee & Tea', 'Burgers', 'Fast Food']","(33.738173253861603, -84.425743371248302)",30310.0,$,3.0,17,POINT (-84.4257433712483 33.7381732538616),GA,Fulton,Atlanta,West End,132606,1,1,0,1,0,0,0,0,0,0,chain,33.7381732538616,-84.4257433712483
380,Krispy Kreme,"['Donuts', 'Coffee & Tea']","(33.737630000000003, -84.415949999999995)",30310.0,$,2.5,30,POINT (-84.41595 33.73763),GA,Fulton,Atlanta,West End,132606,1,0,0,1,0,0,0,0,0,0,other,33.73763,-84.41595
381,Dunkin' Donuts,"['Donuts', 'Coffee & Tea']","(33.738590000000002, -84.430409999999995)",30310.0,$$,2.0,10,POINT (-84.43040999999999 33.73859),GA,Fulton,Atlanta,West End,132606,2,1,0,1,0,0,0,0,0,0,chain,33.73859,-84.43041
382,Dr. Bombay's underwater tea party,"['Tea Rooms', 'Coffee & Tea', 'Bakeries']","(33.764699, -84.333652999999998)",30307.0,$,4.0,250,POINT (-84.333653 33.764699),GA,Dekalb,Atlanta,Candler Park,269285,1,0,0,1,0,1,0,0,0,0,bakeries,33.764699,-84.333653
383,San Francisco Coffee Roasting Company,['Coffee & Tea'],"(33.76249, -84.333320000000001)",30307.0,$,3.0,64,POINT (-84.33332 33.76249),GA,Dekalb,Atlanta,Candler Park,269285,1,0,1,1,0,0,0,0,0,0,strictly_coffee,33.76249,-84.33332
384,The Mercantile,"['Grocery', 'Sandwiches']","(33.76249, -84.333320000000001)",30307.0,$$,4.0,87,POINT (-84.33332 33.76249),GA,Dekalb,Atlanta,Candler Park,269285,2,0,0,0,0,0,0,0,0,0,other,33.76249,-84.33332
385,Gato,['Breakfast & Brunch'],"(33.764925723425598, -84.333182413491798)",30307.0,$,4.0,247,POINT (-84.3331824134918 33.7649257234256),GA,Dekalb,Atlanta,Candler Park,269285,1,0,0,0,1,0,0,0,0,0,breakfast_and_brunch,33.7649257234256,-84.3331824134918
386,The Flying Biscuit Cafe,"['Breakfast & Brunch', 'Coffee & Tea', 'American (Traditional)']","(33.764671999999997, -84.333193699999995)",30307.0,$$,4.0,546,POINT (-84.3331937 33.764672),GA,Dekalb,Atlanta,Candler Park,269285,2,0,0,1,1,0,0,0,0,0,breakfast_and_brunch,33.764672,-84.3331937
387,Candler Park Market,"['Grocery', 'Beer, Wine & Spirits', 'Delis']","(33.76511, -84.333489999999998)",30307.0,$$,4.5,104,POINT (-84.33349 33.76511),GA,Dekalb,Atlanta,Candler Park,269285,2,0,0,0,0,0,0,1,0,0,deli,33.76511,-84.33349
388,Sevananda Natural Foods Market,"['Grocery', 'Organic Stores']","(33.766890234882098, -84.348642267286806)",30307.0,$$,4.0,166,POINT (-84.34864226728681 33.7668902348821),GA,Dekalb,Atlanta,Candler Park,269285,2,0,0,0,0,0,0,0,0,0,other,33.7668902348821,-84.3486422672868
389,Brewhouse Cafe,"['Pubs', 'Sports Bars', 'Breakfast & Brunch']","(33.765140000000002, -84.348889999999997)",30307.0,$$,3.5,250,POINT (-84.34889 33.76514),GA,Dekalb,Atlanta,Candler Park,269285,2,0,0,0,1,0,0,0,0,0,breakfast_and_brunch,33.76514,-84.34889
390,Zesto,"['Burgers', 'Ice Cream & Frozen Yogurt']","(33.7646590763432, -84.348869249224705)",30307.0,$,3.5,89,POINT (-84.34886924922471 33.7646590763432),GA,Dekalb,Atlanta,Candler Park,269285,1,0,0,0,0,0,0,0,1,0,ice_cream_and_froyo,33.7646590763432,-84.3488692492247
391,H&F Bread Co,['Bakeries'],"(33.7964792, -84.4331557)",30318.0,$,4.0,49,POINT (-84.4331557 33.7964792),GA,Fulton,Atlanta,Hills Park,129333,1,0,0,0,0,1,0,0,0,0,bakeries,33.7964792,-84.4331557
392,Sean's Harvest Market,"['Juice Bars & Smoothies', 'Sandwiches', 'Breakfast & Brunch']","(33.7884726037272, -84.369797829708105)",30306.0,$,4.5,163,POINT (-84.36979782970811 33.7884726037272),GA,Dekalb,Atlanta,Morningside - Lenox Park,274592,1,0,0,0,1,0,0,0,0,1,juice_and_smoothie,33.7884726037272,-84.3697978297081
393,Alon's,"['Bakeries', 'Macarons', 'Breakfast & Brunch']","(33.792580000000001, -84.35284)",30306.0,$$,4.0,302,POINT (-84.35284 33.79258),GA,Dekalb,Atlanta,Morningside - Lenox Park,274592,2,0,0,0,1,1,0,0,0,0,bakeries,33.79258,-84.35284
394,Orpheus Brewing,['Breweries'],"(33.79325, -84.368769999999998)",30324.0,$,4.0,88,POINT (-84.36877 33.79325),GA,Dekalb,Atlanta,Morningside - Lenox Park,274592,1,0,0,0,0,0,0,0,0,0,other,33.79325,-84.36877
395,Rhodes Family Bakery,['Bakeries'],"(33.808139801025398, -84.363975524902301)",30324.0,$$,3.5,40,POINT (-84.3639755249023 33.8081398010254),GA,Dekalb,Atlanta,Morningside - Lenox Park,274592,2,0,0,0,0,1,0,0,0,0,bakeries,33.8081398010254,-84.3639755249023
396,Morningside Farmer's Market,['Farmers Market'],"(33.792178999999997, -84.352310000000003)",30306.0,$$,4.5,17,POINT (-84.35231 33.792179),GA,Dekalb,Atlanta,Morningside - Lenox Park,274592,2,0,0,0,0,0,0,0,0,0,other,33.792179,-84.35231
397,Kale Me Crazy,"['Juice Bars & Smoothies', 'Salad', 'Acai Bowls']","(33.792830000000002, -84.352559999999997)",30306.0,$$,4.5,33,POINT (-84.35256 33.79283),GA,Dekalb,Atlanta,Morningside - Lenox Park,274592,2,1,0,0,0,0,0,0,0,1,chain,33.79283,-84.35256
398,Whiskey Bird,"['American (New)', 'Tapas/Small Plates', 'Breakfast & Brunch']","(33.792965500000001, -84.351531100000003)",30306.0,$$,4.5,108,POINT (-84.3515311 33.7929655),GA,Dekalb,Atlanta,Morningside - Lenox Park,274592,2,0,0,0,1,0,0,0,0,0,breakfast_and_brunch,33.7929655,-84.3515311
399,Dunkin' Donuts,"['Donuts', 'Coffee & Tea']","(33.80556, -84.366849999999999)",30324.0,$,2.5,34,POINT (-84.36685 33.80556),GA,Dekalb,Atlanta,Morningside - Lenox Park,274592,1,1,0,1,0,0,0,0,0,0,chain,33.80556,-84.36685
